<?xml version="1.0" encoding="UTF-8"?>
<Export generator="Cache" version="25">
<Class name="NPMLBI.UkraineMap">
<Super>%Persistent,%XML.Adaptor</Super>
<TimeCreated>62477,76806.024807</TimeCreated>

<Property name="Name">
<Description>
Название админ. единицы</Description>
<Type>%String</Type>
<Parameter name="MAXLEN" value="250"/>
</Property>

<Property name="MainCity">
<Description>
Город - Областной центр</Description>
<Type>%Boolean</Type>
<InitialExpression>"0"</InitialExpression>
<Required>1</Required>
</Property>

<Property name="Coords">
<Description>
Координаты границ полигона</Description>
<Type>%String</Type>
<Parameter name="MAXLEN"/>
</Property>

<Property name="Color">
<Description>
Цвет полигона</Description>
<Type>%String</Type>
</Property>

<Property name="Latitude">
<Description>
Широта</Description>
<Type>%String</Type>
</Property>

<Property name="Longitude">
<Description>
Долгота</Description>
<Type>%String</Type>
</Property>

<Property name="ParentName">
<Description>
Вышестоящая адм. единица</Description>
<Type>%String</Type>
<Parameter name="MAXLEN" value="250"/>
</Property>

<Property name="DefaultZoom">
<Description>
Масштаб по умолчанию</Description>
<Type>%Integer</Type>
</Property>

<Property name="CanDrillDown">
<Description>
Возможность drill down</Description>
<Type>%Boolean</Type>
<InitialExpression>"0"</InitialExpression>
<Required>1</Required>
</Property>

<Property name="Level">
<Description>
Уровень иерархии</Description>
<Type>%Integer</Type>
</Property>

<Property name="IsMainStorage">
<Description>
Признак основного склада</Description>
<Type>%Boolean</Type>
<InitialExpression>"0"</InitialExpression>
<Required>1</Required>
</Property>

<Property name="Address">
<Description>
Адрес</Description>
<Type>%String</Type>
<Parameter name="MAXLEN"/>
</Property>

<Property name="AddressShort">
<Description>
Адрес коротко</Description>
<Type>%String</Type>
<Parameter name="MAXLEN" value="250"/>
</Property>

<Property name="Guid">
<Description>
Идектификатор GUID (постоянный)</Description>
<Type>%String</Type>
</Property>

<Property name="Ident">
<Description>
Идектификатор меняющийся</Description>
<Type>%Integer</Type>
</Property>

<Method name="populateRegions">
<ClassMethod>1</ClassMethod>
<ReturnType>%Status</ReturnType>
<Implementation><![CDATA[
	k ^NPMLBI.UkraineMapD
	k ^NPMLBI.UkraineMapI
	
	#dim sc As %Status = $$$OK
	#dim stream As %Stream.Object = ##class(%Dictionary.CompiledXData).%OpenId(..%ClassName(1) _ "||" _ "regions").Data
	#dim reader As %XML.Reader = ##class(%XML.Reader).%New()

	set sc = reader.OpenStream(stream, "literal")
	if $$$ISERR(sc) quit sc
	
	do reader.Correlate("region", ..%ClassName(1))
	
	#dim obj As NPMLBI.UkraineMap
	while reader.Next(.obj, .sc)
	{
		if $$$ISERR(sc) quit

		set sc = obj.%Save()
		if $$$ISERR(sc) quit
		
		set obj = ""
	}
	
	quit sc
]]></Implementation>
</Method>

<Method name="revert">
<ClassMethod>1</ClassMethod>
<ReturnType>%Status</ReturnType>
<Implementation><![CDATA[
	set in = ##class(%Library.FileCharacterStream).%New()
	set in.Filename = "C:\Temp\1.txt"
	
	set out = ##class(%Library.FileCharacterStream).%New()
	set out.Filename = "C:\Temp\2.txt"
	
	set sc = $$$OK
	set i = 0
	while(1)
	{
		set i = i + 1
		set len = 900000
		set str = in.ReadLine(.len, .sc, .eol)
		if $$$ISERR(sc) quit
		if (len < 0) quit
		
		set len = $length(str, " ")
		for j = len:-1:1
		{
			set cur = $p(str, " ", j)
			if (j < len) do out.Write(" ")
			do out.Write(cur)
		}
	}
	if $$$ISERR(sc) quit sc
	
	quit out.%Save()
]]></Implementation>
</Method>

<Method name="rewrite">
<ClassMethod>1</ClassMethod>
<FormalSpec>fileName:%String,outFileName:%String,k:%Integer</FormalSpec>
<ReturnType>%Status</ReturnType>
<Implementation><![CDATA[
	set in = ##class(%Library.FileCharacterStream).%New()
	set in.Filename = fileName
	
	set out = ##class(%Library.FileCharacterStream).%New()
	set out.Filename = outFileName
	
	set sc = $$$OK
	set i = 0
	while(1)
	{
		set i = i + 1
		set len = 900000
		set str = in.ReadLine(.len, .sc, .eol)
		if $$$ISERR(sc) quit
		if (len < 0) quit
		
		//write i _ ": " _ len _ $$$EOL
		
		do out.Write($p(str, " ", 1))
		
		set len = $length(str, " ")
		for j = 2:1:(len-1)
		{
			if (j#k = 0) do out.Write(" " _ $p(str, " ", j))
		}
		
		do out.Write(" " _ $p(str, " ", len))
		do out.Write($$$EOL)
		
	}
	if $$$ISERR(sc) quit sc
	
	quit out.%Save()
]]></Implementation>
</Method>

<XData name="regions">
<Data><![CDATA[
<regions>
<region>
<Name>Центр</Name>
<ParentName>-</ParentName>
<DefaultZoom>7</DefaultZoom>
<CanDrillDown>1</CanDrillDown>
<Level>0</Level>
</region>
<region>
<Name>Восток-Центр</Name>
<ParentName>-</ParentName>
<DefaultZoom>7</DefaultZoom>
<CanDrillDown>1</CanDrillDown>
<Level>0</Level>
</region>
<region>
<Name>Восток</Name>
<ParentName>-</ParentName>
<DefaultZoom>7</DefaultZoom>
<CanDrillDown>1</CanDrillDown>
<Level>0</Level>
</region>
<region>
<Name>Запад</Name>
<ParentName>-</ParentName>
<DefaultZoom>7</DefaultZoom>
<CanDrillDown>1</CanDrillDown>
<Level>0</Level>
</region>
<region>
<Name>Юг</Name>
<ParentName>-</ParentName>
<DefaultZoom>7</DefaultZoom>
<CanDrillDown>1</CanDrillDown>
<Level>0</Level>
</region>

<region>
<Name>АР Крим</Name>
<ParentName>Юг</ParentName>
<DefaultZoom>8</DefaultZoom>
<CanDrillDown>1</CanDrillDown>
<Level>1</Level>
</region>
<region>
<Name>Вінницька область</Name>
<ParentName>Центр</ParentName>
<DefaultZoom>8</DefaultZoom>
<CanDrillDown>1</CanDrillDown>
<Level>1</Level>
</region>
<region>
<Name>Волинська область</Name>
<ParentName>Запад</ParentName>
<DefaultZoom>8</DefaultZoom>
<CanDrillDown>1</CanDrillDown>
<Level>1</Level>
</region>
<region>
<Name>Дніпропетровська область</Name>
<ParentName>Восток-Центр</ParentName>
<DefaultZoom>8</DefaultZoom>
<CanDrillDown>1</CanDrillDown>
<Level>1</Level>
</region>
<region>
<Name>Донецька область</Name>
<ParentName>Восток</ParentName>
<DefaultZoom>8</DefaultZoom>
<CanDrillDown>1</CanDrillDown>
<Level>1</Level>
</region>
<region>
<Name>Житомирська область</Name>
<ParentName>Центр</ParentName>
<DefaultZoom>8</DefaultZoom>
<CanDrillDown>1</CanDrillDown>
<Level>1</Level>
</region>
<region>
<Name>Закарпатська область</Name>
<ParentName>Запад</ParentName>
<DefaultZoom>8</DefaultZoom>
<CanDrillDown>1</CanDrillDown>
<Level>1</Level>
</region>
<region>
<Name>Запорізька область</Name>
<ParentName>Юг</ParentName>
<DefaultZoom>8</DefaultZoom>
<CanDrillDown>1</CanDrillDown>
<Level>1</Level>
</region>
<region>
<Name>Івано-Франківська область</Name>
<ParentName>Запад</ParentName>
<DefaultZoom>8</DefaultZoom>
<CanDrillDown>1</CanDrillDown>
<Level>1</Level>
</region>
<region>
<Name>Київська область</Name>
<ParentName>Центр</ParentName>
<DefaultZoom>8</DefaultZoom>
<CanDrillDown>1</CanDrillDown>
<Level>1</Level>
</region>
<region>
<Name>Кіровоградська область</Name>
<ParentName>Центр</ParentName>
<DefaultZoom>8</DefaultZoom>
<CanDrillDown>1</CanDrillDown>
<Level>1</Level>
</region>
<region>
<Name>Луганська область</Name>
<ParentName>Восток</ParentName>
<DefaultZoom>8</DefaultZoom>
<CanDrillDown>1</CanDrillDown>
<Level>1</Level>
</region>
<region>
<Name>Львівська область</Name>
<ParentName>Запад</ParentName>
<DefaultZoom>8</DefaultZoom>
<CanDrillDown>1</CanDrillDown>
<Level>1</Level>
</region>
<region>
<Name>Миколаївська область</Name>
<ParentName>Юг</ParentName>
<DefaultZoom>8</DefaultZoom>
<CanDrillDown>1</CanDrillDown>
<Level>1</Level>
</region>
<region>
<Name>Одеська область</Name>
<ParentName>Юг</ParentName>
<DefaultZoom>8</DefaultZoom>
<CanDrillDown>1</CanDrillDown>
<Level>1</Level>
</region>
<region>
<Name>Полтавська область</Name>
<ParentName>Восток-Центр</ParentName>
<DefaultZoom>8</DefaultZoom>
<CanDrillDown>1</CanDrillDown>
<Level>1</Level>
</region>
<region>
<Name>Рівненська область</Name>
<ParentName>Запад</ParentName>
<DefaultZoom>8</DefaultZoom>
<CanDrillDown>1</CanDrillDown>
<Level>1</Level>
</region>
<region>
<Name>Сумська область</Name>
<ParentName>Восток-Центр</ParentName>
<DefaultZoom>8</DefaultZoom>
<CanDrillDown>1</CanDrillDown>
<Level>1</Level>
</region>
<region>
<Name>Тернопільська область</Name>
<ParentName>Запад</ParentName>
<DefaultZoom>8</DefaultZoom>
<CanDrillDown>1</CanDrillDown>
<Level>1</Level>
</region>
<region>
<Name>Харківська область</Name>
<ParentName>Восток</ParentName>
<DefaultZoom>8</DefaultZoom>
<CanDrillDown>1</CanDrillDown>
<Level>1</Level>
</region>
<region>
<Name>Херсонська область</Name>
<ParentName>Юг</ParentName>
<DefaultZoom>8</DefaultZoom>
<CanDrillDown>1</CanDrillDown>
<Level>1</Level>
</region>
<region>
<Name>Хмельницька область</Name>
<ParentName>Центр</ParentName>
<DefaultZoom>8</DefaultZoom>
<CanDrillDown>1</CanDrillDown>
<Level>1</Level>
</region>
<region>
<Name>Черкаська область</Name>
<ParentName>Центр</ParentName>
<DefaultZoom>8</DefaultZoom>
<CanDrillDown>1</CanDrillDown>
<Level>1</Level>
</region>
<region>
<Name>Чернівецька область</Name>
<ParentName>Запад</ParentName>
<DefaultZoom>8</DefaultZoom>
<CanDrillDown>1</CanDrillDown>
<Level>1</Level>
</region>
<region>
<Name>Чернігівська область</Name>
<ParentName>Восток-Центр</ParentName>
<DefaultZoom>8</DefaultZoom>
<CanDrillDown>1</CanDrillDown>
<Level>1</Level>
</region>

<region>
<Name>Івано-Франківськ</Name>
<MainCity>1</MainCity>
<Latitude>48.923115</Latitude>
<Longitude>24.7185684</Longitude>
<ParentName>Івано-Франківська область</ParentName>
<DefaultZoom>8</DefaultZoom>
<CanDrillDown>0</CanDrillDown>
<Level>2</Level>
<Guid>90d9001a9256762611dd391cdb5c8904</Guid>
</region>
<region>
<Name>Калуш</Name>
<Latitude>49.0171107</Latitude>
<Longitude>24.3674217</Longitude>
<ParentName>Івано-Франківська область</ParentName>
<DefaultZoom>8</DefaultZoom>
<CanDrillDown>0</CanDrillDown>
<Level>2</Level>
<Guid>90d9001a9256762611dd391cdb5c8913</Guid>
</region>
<region>
<Name>Коломия</Name>
<Latitude>48.5260416</Latitude>
<Longitude>25.0381963</Longitude>
<ParentName>Івано-Франківська область</ParentName>
<DefaultZoom>8</DefaultZoom>
<CanDrillDown>0</CanDrillDown>
<Level>2</Level>
<Guid>90d9001a9256762611dd391cdb5c891f</Guid>
</region>
<region>
<Name>Вінниця</Name>
<MainCity>1</MainCity>
<Latitude>49.2319915</Latitude>
<Longitude>28.4679262</Longitude>
<ParentName>Вінницька область</ParentName>
<DefaultZoom>8</DefaultZoom>
<CanDrillDown>0</CanDrillDown>
<Level>2</Level>
<Guid>90d9001a9256762611dd391cdb5c88de</Guid>
</region>
<region>
<Name>Жмеринка</Name>
<Latitude>49.03747</Latitude>
<Longitude>28.10783</Longitude>
<ParentName>Вінницька область</ParentName>
<DefaultZoom>8</DefaultZoom>
<CanDrillDown>0</CanDrillDown>
<Level>2</Level>
<Guid>81ea001d92f7869711ddb5b917e0c2cb</Guid>
</region>
<region>
<Name>Могилів-Подільський</Name>
<Latitude>48.44765</Latitude>
<Longitude>27.80468</Longitude>
<ParentName>Вінницька область</ParentName>
<DefaultZoom>8</DefaultZoom>
<CanDrillDown>0</CanDrillDown>
<Level>2</Level>
<Guid>b509001d92f7869811de3f5d69da4169</Guid>
</region>
<region>
<Name>Дніпродзержинськ</Name>
<Latitude>48.5033688</Latitude>
<Longitude>34.6132068</Longitude>
<ParentName>Дніпропетровська область</ParentName>
<DefaultZoom>8</DefaultZoom>
<CanDrillDown>0</CanDrillDown>
<Level>2</Level>
<Guid>90d9001a9256762611dd391cdb5c88ed</Guid>
</region>
<region>
<Name>Дніпропетровськ</Name>
<MainCity>1</MainCity>
<Latitude>48.4680396</Latitude>
<Longitude>35.0412808</Longitude>
<ParentName>Дніпропетровська область</ParentName>
<DefaultZoom>8</DefaultZoom>
<CanDrillDown>0</CanDrillDown>
<Level>2</Level>
<Guid>90d9001a9256762611dd391cdb5c88f0</Guid>
</region>
<region>
<Name>Лозова</Name>
<Latitude>48.88916</Latitude>
<Longitude>36.31359</Longitude>
<ParentName>Харківська область</ParentName>
<DefaultZoom>8</DefaultZoom>
<CanDrillDown>0</CanDrillDown>
<Level>2</Level>
<Guid>90d9001a9256762611dd391cdb5c8936</Guid>
</region>
<region>
<Name>Новомосковськ</Name>
<Latitude>48.6358512</Latitude>
<Longitude>35.2595541</Longitude>
<ParentName>Дніпропетровська область</ParentName>
<DefaultZoom>8</DefaultZoom>
<CanDrillDown>0</CanDrillDown>
<Level>2</Level>
<Guid>90d9001a9256762611dd391cdb5c8956</Guid>
</region>
<region>
<Name>П`ятихатки</Name>
<Latitude>48.4243</Latitude>
<Longitude>33.72116</Longitude>
<ParentName>Дніпропетровська область</ParentName>
<DefaultZoom>8</DefaultZoom>
<CanDrillDown>0</CanDrillDown>
<Level>2</Level>
<Guid>bcd8001d92f7869711dda440441f7f96</Guid>
</region>
<region>
<Name>Павлоград</Name>
<Latitude>48.5312417</Latitude>
<Longitude>35.8706912</Longitude>
<ParentName>Дніпропетровська область</ParentName>
<DefaultZoom>8</DefaultZoom>
<CanDrillDown>0</CanDrillDown>
<Level>2</Level>
<Guid>90d9001a9256762611dd391cdb5c895e</Guid>
</region>
<region>
<Name>Єнакієве</Name>
<Latitude>48.2303208</Latitude>
<Longitude>38.1846919</Longitude>
<ParentName>Донецька область</ParentName>
<DefaultZoom>8</DefaultZoom>
<CanDrillDown>0</CanDrillDown>
<Level>2</Level>
<Guid>90d9001a9256762611dd391cdb5c88fa</Guid>
</region>
<region>
<Name>Артемівськ</Name>
<Latitude>48.5942434</Latitude>
<Longitude>38.0013631</Longitude>
<ParentName>Донецька область</ParentName>
<DefaultZoom>8</DefaultZoom>
<CanDrillDown>0</CanDrillDown>
<Level>2</Level>
<Guid>90d9001a9256762611dd391cdb5c88c0</Guid>
</region>
<region>
<Name>Горлівка</Name>
<Latitude>48.3040963</Latitude>
<Longitude>38.0168102</Longitude>
<ParentName>Донецька область</ParentName>
<DefaultZoom>8</DefaultZoom>
<CanDrillDown>0</CanDrillDown>
<Level>2</Level>
<Guid>90d9001a9256762611dd391cdb5c88e8</Guid>
</region>
<region>
<Name>Донецьк</Name>
<MainCity>1</MainCity>
<Latitude>48.0010796</Latitude>
<Longitude>37.8042197</Longitude>
<ParentName>Донецька область</ParentName>
<DefaultZoom>8</DefaultZoom>
<CanDrillDown>0</CanDrillDown>
<Level>2</Level>
<Guid>90d9001a9256762611dd391cdb5c88bf</Guid>
</region>
<region>
<Name>Дружківка</Name>
<Latitude>48.6198237</Latitude>
<Longitude>37.5254346</Longitude>
<ParentName>Донецька область</ParentName>
<DefaultZoom>8</DefaultZoom>
<CanDrillDown>0</CanDrillDown>
<Level>2</Level>
<Guid>90d9001a9256762611dd391cdb5c88f7</Guid>
</region>
<region>
<Name>Костянтинівка</Name>
<Latitude>48.5236887</Latitude>
<Longitude>37.7121962</Longitude>
<ParentName>Донецька область</ParentName>
<DefaultZoom>8</DefaultZoom>
<CanDrillDown>0</CanDrillDown>
<Level>2</Level>
<Guid>90d9001a9256762611dd391cdb5c8925</Guid>
</region>
<region>
<Name>Краматорськ</Name>
<Latitude>48.7200435</Latitude>
<Longitude>37.5605651</Longitude>
<ParentName>Донецька область</ParentName>
<DefaultZoom>8</DefaultZoom>
<CanDrillDown>0</CanDrillDown>
<Level>2</Level>
<Guid>90d9001a9256762611dd391cdb5c8927</Guid>
</region>
<region>
<Name>Красноармійськ</Name>
<Latitude>48.28087</Latitude>
<Longitude>37.17216</Longitude>
<ParentName>Донецька область</ParentName>
<DefaultZoom>8</DefaultZoom>
<CanDrillDown>0</CanDrillDown>
<Level>2</Level>
<Guid>90d9001a9256762611dd391cdb5c892a</Guid>
</region>
<region>
<Name>Макіївка</Name>
<Latitude>48.04467</Latitude>
<Longitude>37.9642</Longitude>
<ParentName>Донецька область</ParentName>
<DefaultZoom>8</DefaultZoom>
<CanDrillDown>0</CanDrillDown>
<Level>2</Level>
<Guid>90d9001a9256762611dd391cdb5c8940</Guid>
</region>
<region>
<Name>Слов`янськ</Name>
<Latitude>48.8522691</Latitude>
<Longitude>37.6058241</Longitude>
<ParentName>Донецька область</ParentName>
<DefaultZoom>8</DefaultZoom>
<CanDrillDown>0</CanDrillDown>
<Level>2</Level>
<Guid>90d9001a9256762611dd391cdb5c897e</Guid>
</region>
<region>
<Name>Харцизьк</Name>
<Latitude>48.0342</Latitude>
<Longitude>38.14934</Longitude>
<ParentName>Донецька область</ParentName>
<DefaultZoom>8</DefaultZoom>
<CanDrillDown>0</CanDrillDown>
<Level>2</Level>
<Guid>90d9001a9256762611dd391ce221d635</Guid>
</region>
<region>
<Name>Бердичів</Name>
<Latitude>49.8953025</Latitude>
<Longitude>28.5803289</Longitude>
<ParentName>Житомирська область</ParentName>
<DefaultZoom>8</DefaultZoom>
<CanDrillDown>0</CanDrillDown>
<Level>2</Level>
<Guid>90d9001a9256762611dd391cdb5c88c5</Guid>
</region>
<region>
<Name>Житомир</Name>
<MainCity>1</MainCity>
<Latitude>50.2598352</Latitude>
<Longitude>28.6692373</Longitude>
<ParentName>Житомирська область</ParentName>
<DefaultZoom>8</DefaultZoom>
<CanDrillDown>0</CanDrillDown>
<Level>2</Level>
<Guid>90d9001a9256762611dd391cdb5c88c4</Guid>
</region>
<region>
<Name>Коростень</Name>
<Latitude>50.94884</Latitude>
<Longitude>28.64136</Longitude>
<ParentName>Житомирська область</ParentName>
<DefaultZoom>8</DefaultZoom>
<CanDrillDown>0</CanDrillDown>
<Level>2</Level>
<Guid>90d9001a9256762611dd391cdb5c8924</Guid>
</region>
<region>
<Name>Новоград-Волинський</Name>
<Latitude>50.5917622</Latitude>
<Longitude>27.6066973</Longitude>
<ParentName>Житомирська область</ParentName>
<DefaultZoom>8</DefaultZoom>
<CanDrillDown>0</CanDrillDown>
<Level>2</Level>
<Guid>90d9001a9256762611dd391cdb5c8955</Guid>
</region>
<region>
<Name>Бердянськ</Name>
<Latitude>46.7611424</Latitude>
<Longitude>36.7893746</Longitude>
<ParentName>Запорізька область</ParentName>
<DefaultZoom>8</DefaultZoom>
<CanDrillDown>0</CanDrillDown>
<Level>2</Level>
<Guid>90d9001a9256762611dd391cdb5c88c7</Guid>
</region>
<region>
<Name>Енергодар</Name>
<Latitude>47.491142</Latitude>
<Longitude>34.662333</Longitude>
<ParentName>Запорізька область</ParentName>
<DefaultZoom>8</DefaultZoom>
<CanDrillDown>0</CanDrillDown>
<Level>2</Level>
<Guid>a2ca000c294065a111dea84bb3ecdf66</Guid>
</region>
<region>
<Name>Запоріжжя</Name>
<MainCity>1</MainCity>
<Latitude>47.8600074</Latitude>
<Longitude>35.1100843</Longitude>
<ParentName>Запорізька область</ParentName>
<DefaultZoom>8</DefaultZoom>
<CanDrillDown>0</CanDrillDown>
<Level>2</Level>
<Guid>90d9001a9256762611dd391cdb5c88c6</Guid>
</region>
<region>
<Name>Марганець</Name>
<Latitude>47.649466</Latitude>
<Longitude>34.6480525</Longitude>
<ParentName>Дніпропетровська область</ParentName>
<DefaultZoom>8</DefaultZoom>
<CanDrillDown>0</CanDrillDown>
<Level>2</Level>
<Guid>90d9001a9256762611dd391cdb5c8942</Guid>
</region>
<region>
<Name>Мелітополь</Name>
<Latitude>46.8481977</Latitude>
<Longitude>35.3662919</Longitude>
<ParentName>Запорізька область</ParentName>
<DefaultZoom>8</DefaultZoom>
<CanDrillDown>0</CanDrillDown>
<Level>2</Level>
<Guid>90d9001a9256762611dd391cdb5c8947</Guid>
</region>
<region>
<Name>Нікополь</Name>
<Latitude>47.5708744</Latitude>
<Longitude>34.397875</Longitude>
<ParentName>Дніпропетровська область</ParentName>
<DefaultZoom>8</DefaultZoom>
<CanDrillDown>0</CanDrillDown>
<Level>2</Level>
<Guid>90d9001a9256762611dd391cdb5c894f</Guid>
</region>
<region>
<Name>Орджонікідзе</Name>
<Latitude>47.6565343</Latitude>
<Longitude>34.110487</Longitude>
<ParentName>Дніпропетровська область</ParentName>
<DefaultZoom>8</DefaultZoom>
<CanDrillDown>0</CanDrillDown>
<Level>2</Level>
<Guid>90d9001a9256762611dd391cdb5c895c</Guid>
</region>
<region>
<Name>Токмак</Name>
<Latitude>47.25494</Latitude>
<Longitude>35.6997299</Longitude>
<ParentName>Запорізька область</ParentName>
<DefaultZoom>8</DefaultZoom>
<CanDrillDown>0</CanDrillDown>
<Level>2</Level>
<Guid>b180001d92f7869811dd5d2c91214bc9</Guid>
</region>
<region>
<Name>Кіровоград</Name>
<MainCity>1</MainCity>
<Latitude>48.5103856</Latitude>
<Longitude>32.2662932</Longitude>
<ParentName>Кіровоградська область</ParentName>
<DefaultZoom>8</DefaultZoom>
<CanDrillDown>0</CanDrillDown>
<Level>2</Level>
<Guid>90d9001a9256762611dd391cdb5c891b</Guid>
</region>
<region>
<Name>Олександрія</Name>
<Latitude>48.67596</Latitude>
<Longitude>33.11623</Longitude>
<ParentName>Кіровоградська область</ParentName>
<DefaultZoom>8</DefaultZoom>
<CanDrillDown>0</CanDrillDown>
<Level>2</Level>
<Guid>90d9001a9256762611dd391cdb5c895b</Guid>
</region>
<region>
<Name>Леніне</Name>
<Latitude>45.297284</Latitude>
<Longitude>35.7758985</Longitude>
<ParentName>АР Крим</ParentName>
<DefaultZoom>8</DefaultZoom>
<CanDrillDown>0</CanDrillDown>
<Level>2</Level>
<Guid>b509001d92f7869811de407900065634</Guid>
</region>
<region>
<Name>Ірпінь</Name>
<Latitude>50.5194232</Latitude>
<Longitude>30.2479352</Longitude>
<ParentName>Київська область</ParentName>
<DefaultZoom>8</DefaultZoom>
<CanDrillDown>0</CanDrillDown>
<Level>2</Level>
<Guid>90d9001a9256762611dd391cdb5c8911</Guid>
</region>
<region>
<Name>Біла Церква</Name>
<Latitude>49.8038191</Latitude>
<Longitude>30.1116924</Longitude>
<ParentName>Київська область</ParentName>
<DefaultZoom>8</DefaultZoom>
<CanDrillDown>0</CanDrillDown>
<Level>2</Level>
<Guid>90d9001a9256762611dd391cdb5c88ce</Guid>
</region>
<region>
<Name>Березань</Name>
<Latitude>50.3132713</Latitude>
<Longitude>31.4689158</Longitude>
<ParentName>Київська область</ParentName>
<DefaultZoom>8</DefaultZoom>
<CanDrillDown>0</CanDrillDown>
<Level>2</Level>
<Guid>baa0c8912765d3f711e0cfabb1a78da1</Guid>
</region>
<region>
<Name>Бориспіль</Name>
<Latitude>50.3519981</Latitude>
<Longitude>30.950704</Longitude>
<ParentName>Київська область</ParentName>
<DefaultZoom>8</DefaultZoom>
<CanDrillDown>0</CanDrillDown>
<Level>2</Level>
<Guid>90d9001a9256762611dd391cdb5c88d4</Guid>
</region>
<region>
<Name>Бровари</Name>
<Latitude>50.5109736</Latitude>
<Longitude>30.7900867</Longitude>
<ParentName>Київська область</ParentName>
<DefaultZoom>8</DefaultZoom>
<CanDrillDown>0</CanDrillDown>
<Level>2</Level>
<Guid>90d9001a9256762611dd391cdb5c88d7</Guid>
</region>
<region>
<Name>Вишгород</Name>
<Latitude>50.5823138</Latitude>
<Longitude>30.4849516</Longitude>
<ParentName>Київська область</ParentName>
<DefaultZoom>8</DefaultZoom>
<CanDrillDown>0</CanDrillDown>
<Level>2</Level>
<Guid>90d9001a9256762611dd391cdb5c88dc</Guid>
</region>
<region>
<Name>Вишневе</Name>
<Latitude>50.3833354</Latitude>
<Longitude>30.3666959</Longitude>
<ParentName>Київська область</ParentName>
<DefaultZoom>8</DefaultZoom>
<CanDrillDown>0</CanDrillDown>
<Level>2</Level>
<Guid>8bdf000c2965ae0e11deb23e38263fa1</Guid>
</region>
<region>
<Name>Київ</Name>
<MainCity>1</MainCity>
<Latitude>50.4499799</Latitude>
<Longitude>30.5235008</Longitude>
<ParentName>Київська область</ParentName>
<DefaultZoom>8</DefaultZoom>
<CanDrillDown>0</CanDrillDown>
<Level>2</Level>
<Guid>90d9001a9256762611dd391c8d5a980d</Guid>
</region>
<region>
<Name>Макарів</Name>
<Latitude>50.4667998</Latitude>
<Longitude>29.8129089</Longitude>
<ParentName>Київська область</ParentName>
<DefaultZoom>8</DefaultZoom>
<CanDrillDown>0</CanDrillDown>
<Level>2</Level>
<Guid>b509001d92f7869811de4078f70622ee</Guid>
</region>
<region>
<Name>Обухів</Name>
<Latitude>50.1101943</Latitude>
<Longitude>30.6267497</Longitude>
<ParentName>Київська область</ParentName>
<DefaultZoom>8</DefaultZoom>
<CanDrillDown>0</CanDrillDown>
<Level>2</Level>
<Guid>90d9001a9256762611dd391cdb5c8958</Guid>
</region>
<region>
<Name>Переяслав-Хмельницький</Name>
<Latitude>50.0647</Latitude>
<Longitude>31.4452799</Longitude>
<ParentName>Київська область</ParentName>
<DefaultZoom>8</DefaultZoom>
<CanDrillDown>0</CanDrillDown>
<Level>2</Level>
<Guid>b509001d92f7869811de4078f70622fc</Guid>
</region>
<region>
<Name>Стоянка</Name>
<Latitude>50.45402</Latitude>
<Longitude>30.22614</Longitude>
<ParentName>Київська область</ParentName>
<DefaultZoom>8</DefaultZoom>
<CanDrillDown>0</CanDrillDown>
<Level>2</Level>
<Guid>8f21e1d3134d1b4511e08ceb717b7acf</Guid>
</region>
<region>
<Name>Фастів</Name>
<Latitude>50.0763242</Latitude>
<Longitude>29.9214275</Longitude>
<ParentName>Київська область</ParentName>
<DefaultZoom>8</DefaultZoom>
<CanDrillDown>0</CanDrillDown>
<Level>2</Level>
<Guid>90d9001a9256762611dd391ce221d62b</Guid>
</region>
<region>
<Name>Комсомольськ</Name>
<Latitude>49.0361</Latitude>
<Longitude>33.62091</Longitude>
<ParentName>Полтавська область</ParentName>
<DefaultZoom>8</DefaultZoom>
<CanDrillDown>0</CanDrillDown>
<Level>2</Level>
<Guid>90d9001a9256762611dd391cdb5c8920</Guid>
</region>
<region>
<Name>Кременчук</Name>
<Latitude>49.0797222</Latitude>
<Longitude>33.4325</Longitude>
<ParentName>Полтавська область</ParentName>
<DefaultZoom>8</DefaultZoom>
<CanDrillDown>0</CanDrillDown>
<Level>2</Level>
<Guid>90d9001a9256762611dd391c8d5a9813</Guid>
</region>
<region>
<Name>Світловодськ</Name>
<Latitude>49.04537</Latitude>
<Longitude>33.20721</Longitude>
<ParentName>Кіровоградська область</ParentName>
<DefaultZoom>8</DefaultZoom>
<CanDrillDown>0</CanDrillDown>
<Level>2</Level>
<Guid>90d9001a9256762611dd391cdb5c8974</Guid>
</region>
<region>
<Name>Жовті Води</Name>
<Latitude>48.3527065</Latitude>
<Longitude>33.4979349</Longitude>
<ParentName>Дніпропетровська область</ParentName>
<DefaultZoom>8</DefaultZoom>
<CanDrillDown>0</CanDrillDown>
<Level>2</Level>
<Guid>bcd8001d92f7869711dda440441f7f9e</Guid>
</region>
<region>
<Name>Кривий Ріг</Name>
<Latitude>47.9059908</Latitude>
<Longitude>33.3941224</Longitude>
<ParentName>Дніпропетровська область</ParentName>
<DefaultZoom>8</DefaultZoom>
<CanDrillDown>0</CanDrillDown>
<Level>2</Level>
<Guid>90d9001a9256762611dd391cdb5c890d</Guid>
</region>
<region>
<Name>Алчевськ</Name>
<Latitude>48.4694259</Latitude>
<Longitude>38.8038464</Longitude>
<ParentName>Луганська область</ParentName>
<DefaultZoom>8</DefaultZoom>
<CanDrillDown>0</CanDrillDown>
<Level>2</Level>
<Guid>90d9001a9256762611dd391cdb5c88bb</Guid>
</region>
<region>
<Name>Антрацит</Name>
<Latitude>48.11668</Latitude>
<Longitude>39.08867</Longitude>
<ParentName>Луганська область</ParentName>
<DefaultZoom>8</DefaultZoom>
<CanDrillDown>0</CanDrillDown>
<Level>2</Level>
<Guid>90d9001a9256762611dd391cdb5c88bd</Guid>
</region>
<region>
<Name>Красний Луч</Name>
<Latitude>48.1351471</Latitude>
<Longitude>38.9198948</Longitude>
<ParentName>Луганська область</ParentName>
<DefaultZoom>8</DefaultZoom>
<CanDrillDown>0</CanDrillDown>
<Level>2</Level>
<Guid>90d9001a9256762611dd391cdb5c8929</Guid>
</region>
<region>
<Name>Лисичанськ</Name>
<Latitude>48.8941351</Latitude>
<Longitude>38.4418175</Longitude>
<ParentName>Луганська область</ParentName>
<DefaultZoom>8</DefaultZoom>
<CanDrillDown>0</CanDrillDown>
<Level>2</Level>
<Guid>90d9001a9256762611dd391cdb5c8934</Guid>
</region>
<region>
<Name>Луганськ</Name>
<MainCity>1</MainCity>
<Latitude>48.5688212</Latitude>
<Longitude>39.3154202</Longitude>
<ParentName>Луганська область</ParentName>
<DefaultZoom>8</DefaultZoom>
<CanDrillDown>0</CanDrillDown>
<Level>2</Level>
<Guid>90d9001a9256762611dd391cdb5c88ba</Guid>
</region>
<region>
<Name>Ровеньки</Name>
<Latitude>48.0899</Latitude>
<Longitude>39.3671</Longitude>
<ParentName>Луганська область</ParentName>
<DefaultZoom>8</DefaultZoom>
<CanDrillDown>0</CanDrillDown>
<Level>2</Level>
<Guid>90d9001a9256762611dd391cdb5c896d</Guid>
</region>
<region>
<Name>Рубіжне</Name>
<Latitude>49.0223545</Latitude>
<Longitude>38.3663076</Longitude>
<ParentName>Луганська область</ParentName>
<DefaultZoom>8</DefaultZoom>
<CanDrillDown>0</CanDrillDown>
<Level>2</Level>
<Guid>90d9001a9256762611dd391cdb5c8970</Guid>
</region>
<region>
<Name>Сєверодонецьк</Name>
<Latitude>48.9457932</Latitude>
<Longitude>38.4975554</Longitude>
<ParentName>Луганська область</ParentName>
<DefaultZoom>8</DefaultZoom>
<CanDrillDown>0</CanDrillDown>
<Level>2</Level>
<Guid>90d9001a9256762611dd391cdb5c8977</Guid>
</region>
<region>
<Name>Свердловськ</Name>
<Latitude>48.0811324</Latitude>
<Longitude>39.642561</Longitude>
<ParentName>Луганська область</ParentName>
<DefaultZoom>8</DefaultZoom>
<CanDrillDown>0</CanDrillDown>
<Level>2</Level>
<Guid>90d9001a9256762611dd391cdb5c8973</Guid>
</region>
<region>
<Name>Стаханов</Name>
<Latitude>48.5623082</Latitude>
<Longitude>38.6416719</Longitude>
<ParentName>Луганська область</ParentName>
<DefaultZoom>8</DefaultZoom>
<CanDrillDown>0</CanDrillDown>
<Level>2</Level>
<Guid>90d9001a9256762611dd391cdb5c8983</Guid>
</region>
<region>
<Name>Володимир-Волинський</Name>
<Latitude>50.8503123</Latitude>
<Longitude>24.3174711</Longitude>
<ParentName>Волинська область</ParentName>
<DefaultZoom>8</DefaultZoom>
<CanDrillDown>0</CanDrillDown>
<Level>2</Level>
<Guid>b509001d92f7869811de4078f7062358</Guid>
</region>
<region>
<Name>Ковель</Name>
<Latitude>51.2090832</Latitude>
<Longitude>24.7187781</Longitude>
<ParentName>Волинська область</ParentName>
<DefaultZoom>8</DefaultZoom>
<CanDrillDown>0</CanDrillDown>
<Level>2</Level>
<Guid>90d9001a9256762611dd391cdb5c891e</Guid>
</region>
<region>
<Name>Луцьк</Name>
<MainCity>1</MainCity>
<Latitude>50.7612784</Latitude>
<Longitude>25.351757</Longitude>
<ParentName>Волинська область</ParentName>
<DefaultZoom>8</DefaultZoom>
<CanDrillDown>0</CanDrillDown>
<Level>2</Level>
<Guid>90d9001a9256762611dd391cdb5c893b</Guid>
</region>
<region>
<Name>Нововолинськ</Name>
<Latitude>50.7224829</Latitude>
<Longitude>24.1648399</Longitude>
<ParentName>Волинська область</ParentName>
<DefaultZoom>8</DefaultZoom>
<CanDrillDown>0</CanDrillDown>
<Level>2</Level>
<Guid>90d9001a9256762611dd391cdb5c8953</Guid>
</region>
<region>
<Name>Дрогобич</Name>
<Latitude>49.3516518</Latitude>
<Longitude>23.5081651</Longitude>
<ParentName>Львівська область</ParentName>
<DefaultZoom>8</DefaultZoom>
<CanDrillDown>0</CanDrillDown>
<Level>2</Level>
<Guid>90d9001a9256762611dd391cdb5c88f6</Guid>
</region>
<region>
<Name>Львів</Name>
<MainCity>1</MainCity>
<Latitude>49.8418918</Latitude>
<Longitude>24.0315335</Longitude>
<ParentName>Львівська область</ParentName>
<DefaultZoom>8</DefaultZoom>
<CanDrillDown>0</CanDrillDown>
<Level>2</Level>
<Guid>90d9001a9256762611dd391cdb5c88f5</Guid>
</region>
<region>
<Name>Самбір</Name>
<Latitude>49.51641</Latitude>
<Longitude>23.2024399</Longitude>
<ParentName>Львівська область</ParentName>
<DefaultZoom>8</DefaultZoom>
<CanDrillDown>0</CanDrillDown>
<Level>2</Level>
<Guid>90d9001a9256762611dd391cdb5c8972</Guid>
</region>
<region>
<Name>Стрий</Name>
<Latitude>49.2559923</Latitude>
<Longitude>23.8495961</Longitude>
<ParentName>Львівська область</ParentName>
<DefaultZoom>8</DefaultZoom>
<CanDrillDown>0</CanDrillDown>
<Level>2</Level>
<Guid>90d9001a9256762611dd391cdb5c8985</Guid>
</region>
<region>
<Name>Трускавець</Name>
<Latitude>49.2819677</Latitude>
<Longitude>23.5123016</Longitude>
<ParentName>Львівська область</ParentName>
<DefaultZoom>8</DefaultZoom>
<CanDrillDown>0</CanDrillDown>
<Level>2</Level>
<Guid>90d9001a9256762611dd391ce221d626</Guid>
</region>
<region>
<Name>Червоноград(Львів)</Name>
<Latitude>50.3944888</Latitude>
<Longitude>24.235489</Longitude>
<ParentName>Львівська область</ParentName>
<DefaultZoom>8</DefaultZoom>
<CanDrillDown>0</CanDrillDown>
<Level>2</Level>
<Guid>90d9001a9256762611dd391ce221d63f</Guid>
</region>
<region>
<Name>Волноваха</Name>
<Latitude>47.59612</Latitude>
<Longitude>37.49857</Longitude>
<ParentName>Донецька область</ParentName>
<DefaultZoom>8</DefaultZoom>
<CanDrillDown>0</CanDrillDown>
<Level>2</Level>
<Guid>b509001d92f7869811de3f5d69da41b4</Guid>
</region>
<region>
<Name>Маріуполь</Name>
<Latitude>47.1110487</Latitude>
<Longitude>37.6025729</Longitude>
<ParentName>Донецька область</ParentName>
<DefaultZoom>8</DefaultZoom>
<CanDrillDown>0</CanDrillDown>
<Level>2</Level>
<Guid>90d9001a9256762611dd391cdb5c8944</Guid>
</region>
<region>
<Name>Новоазовськ</Name>
<Latitude>47.11375</Latitude>
<Longitude>38.08359</Longitude>
<ParentName>Донецька область</ParentName>
<DefaultZoom>8</DefaultZoom>
<CanDrillDown>0</CanDrillDown>
<Level>2</Level>
<Guid>b509001d92f7869811de4079000655d2</Guid>
</region>
<region>
<Name>Вознесенськ</Name>
<Latitude>47.5705848</Latitude>
<Longitude>31.330957</Longitude>
<ParentName>Миколаївська область</ParentName>
<DefaultZoom>8</DefaultZoom>
<CanDrillDown>0</CanDrillDown>
<Level>2</Level>
<Guid>90d9001a9256762611dd391cdb5c88e3</Guid>
</region>
<region>
<Name>Миколаїв</Name>
<MainCity>1</MainCity>
<Latitude>46.9635124</Latitude>
<Longitude>32.0066825</Longitude>
<ParentName>Миколаївська область</ParentName>
<DefaultZoom>8</DefaultZoom>
<CanDrillDown>0</CanDrillDown>
<Level>2</Level>
<Guid>90d9001a9256762611dd391cdb5c888c</Guid>
</region>
<region>
<Name>Первомайськ(Миколаїв)</Name>
<Latitude>48.045745</Latitude>
<Longitude>30.8475997</Longitude>
<ParentName>Миколаївська область</ParentName>
<DefaultZoom>8</DefaultZoom>
<CanDrillDown>0</CanDrillDown>
<Level>2</Level>
<Guid>90d9001a9256762611dd391cdb5c8962</Guid>
</region>
<region>
<Name>Южноукраїнськ</Name>
<Latitude>47.82829</Latitude>
<Longitude>31.16753</Longitude>
<ParentName>Миколаївська область</ParentName>
<DefaultZoom>8</DefaultZoom>
<CanDrillDown>0</CanDrillDown>
<Level>2</Level>
<Guid>90d9001a9256762611dd391ce221d650</Guid>
</region>
<region>
<Name>Мукачеве</Name>
<Latitude>48.44112</Latitude>
<Longitude>22.72179</Longitude>
<ParentName>Закарпатська область</ParentName>
<DefaultZoom>8</DefaultZoom>
<CanDrillDown>0</CanDrillDown>
<Level>2</Level>
<Guid>90d9001a9256762611dd391cdb5c88c9</Guid>
</region>
<region>
<Name>Хуст</Name>
<Latitude>48.17814</Latitude>
<Longitude>23.29067</Longitude>
<ParentName>Закарпатська область</ParentName>
<DefaultZoom>8</DefaultZoom>
<CanDrillDown>0</CanDrillDown>
<Level>2</Level>
<Guid>90d9001a9256762611dd391ce221d63c</Guid>
</region>
<region>
<Name>Ізмаїл</Name>
<Latitude>45.3421228</Latitude>
<Longitude>28.8359886</Longitude>
<ParentName>Одеська область</ParentName>
<DefaultZoom>8</DefaultZoom>
<CanDrillDown>0</CanDrillDown>
<Level>2</Level>
<Guid>90d9001a9256762611dd391cdb5c8907</Guid>
</region>
<region>
<Name>Іллічівськ</Name>
<Latitude>46.30222</Latitude>
<Longitude>30.65495</Longitude>
<ParentName>Одеська область</ParentName>
<DefaultZoom>8</DefaultZoom>
<CanDrillDown>0</CanDrillDown>
<Level>2</Level>
<Guid>90d9001a9256762611dd391cdb5c890b</Guid>
</region>
<region>
<Name>Білгород-Дністровський</Name>
<Latitude>46.1909555</Latitude>
<Longitude>30.3457853</Longitude>
<ParentName>Одеська область</ParentName>
<DefaultZoom>8</DefaultZoom>
<CanDrillDown>0</CanDrillDown>
<Level>2</Level>
<Guid>90d9001a9256762611dd391cdb5c88d1</Guid>
</region>
<region>
<Name>Котовськ</Name>
<Latitude>47.75722</Latitude>
<Longitude>29.52919</Longitude>
<ParentName>Одеська область</ParentName>
<DefaultZoom>8</DefaultZoom>
<CanDrillDown>0</CanDrillDown>
<Level>2</Level>
<Guid>b509001d92f7869811de407906f8796a</Guid>
</region>
<region>
<Name>Одеса</Name>
<MainCity>1</MainCity>
<Latitude>46.4713468</Latitude>
<Longitude>30.7296333</Longitude>
<ParentName>Одеська область</ParentName>
<DefaultZoom>8</DefaultZoom>
<CanDrillDown>0</CanDrillDown>
<Level>2</Level>
<Guid>90d9001a9256762611dd391cdb5c88d0</Guid>
</region>
<region>
<Name>Южне</Name>
<Latitude>46.6259849</Latitude>
<Longitude>31.1016096</Longitude>
<ParentName>Одеська область</ParentName>
<DefaultZoom>8</DefaultZoom>
<CanDrillDown>0</CanDrillDown>
<Level>2</Level>
<Guid>90d9001a9256762611dd391ce221d64e</Guid>
</region>
<region>
<Name>Карлівка</Name>
<Latitude>49.46285</Latitude>
<Longitude>35.11162</Longitude>
<ParentName>Полтавська область</ParentName>
<DefaultZoom>8</DefaultZoom>
<CanDrillDown>0</CanDrillDown>
<Level>2</Level>
<Guid>913b001d92f7869811de3b517833e618</Guid>
</region>
<region>
<Name>Красноград (Харківська обл)</Name>
<Latitude>49.3800742</Latitude>
<Longitude>35.4458713</Longitude>
<ParentName>Харківська область</ParentName>
<DefaultZoom>8</DefaultZoom>
<CanDrillDown>0</CanDrillDown>
<Level>2</Level>
<Guid>90d9001a9256762611dd391cdb5c892b</Guid>
</region>
<region>
<Name>Лубни</Name>
<Latitude>50.0184043</Latitude>
<Longitude>32.9920904</Longitude>
<ParentName>Полтавська область</ParentName>
<DefaultZoom>8</DefaultZoom>
<CanDrillDown>0</CanDrillDown>
<Level>2</Level>
<Guid>90d9001a9256762611dd391cdb5c8938</Guid>
</region>
<region>
<Name>Миргород</Name>
<Latitude>49.9609042</Latitude>
<Longitude>33.6169093</Longitude>
<ParentName>Полтавська область</ParentName>
<DefaultZoom>8</DefaultZoom>
<CanDrillDown>0</CanDrillDown>
<Level>2</Level>
<Guid>90d9001a9256762611dd391cdb5c894c</Guid>
</region>
<region>
<Name>Полтава</Name>
<MainCity>1</MainCity>
<Latitude>49.5894444</Latitude>
<Longitude>34.5511111</Longitude>
<ParentName>Полтавська область</ParentName>
<DefaultZoom>8</DefaultZoom>
<CanDrillDown>0</CanDrillDown>
<Level>2</Level>
<Guid>90d9001a9256762611dd391cdb5c8892</Guid>
</region>
<region>
<Name>Решетилівка</Name>
<Latitude>49.5583</Latitude>
<Longitude>34.07684</Longitude>
<ParentName>Полтавська область</ParentName>
<DefaultZoom>8</DefaultZoom>
<CanDrillDown>0</CanDrillDown>
<Level>2</Level>
<Guid>9198001d6045198311dd4bd0c5f70e46</Guid>
</region>
<region>
<Name>Дубно</Name>
<Latitude>50.40733</Latitude>
<Longitude>25.76191</Longitude>
<ParentName>Рівненська область</ParentName>
<DefaultZoom>8</DefaultZoom>
<CanDrillDown>0</CanDrillDown>
<Level>2</Level>
<Guid>bcd8001d92f7869711dda440441f7f9c</Guid>
</region>
<region>
<Name>Костопіль</Name>
<Latitude>50.88283</Latitude>
<Longitude>26.4513</Longitude>
<ParentName>Рівненська область</ParentName>
<DefaultZoom>8</DefaultZoom>
<CanDrillDown>0</CanDrillDown>
<Level>2</Level>
<Guid>b509001d92f7869811de407900065614</Guid>
</region>
<region>
<Name>Рівне</Name>
<MainCity>1</MainCity>
<Latitude>50.6196175</Latitude>
<Longitude>26.2513165</Longitude>
<ParentName>Рівненська область</ParentName>
<DefaultZoom>8</DefaultZoom>
<CanDrillDown>0</CanDrillDown>
<Level>2</Level>
<Guid>90d9001a9256762611dd391cdb5c896a</Guid>
</region>
<region>
<Name>Сарни</Name>
<Latitude>51.31782</Latitude>
<Longitude>26.62262</Longitude>
<ParentName>Рівненська область</ParentName>
<DefaultZoom>8</DefaultZoom>
<CanDrillDown>0</CanDrillDown>
<Level>2</Level>
<Guid>b509001d92f7869811de407900065616</Guid>
</region>
<region>
<Name>Євпаторія</Name>
<Latitude>45.1906837</Latitude>
<Longitude>33.367903</Longitude>
<ParentName>АР Крим</ParentName>
<DefaultZoom>8</DefaultZoom>
<CanDrillDown>0</CanDrillDown>
<Level>2</Level>
<Guid>90d9001a9256762611dd391cdb5c88f8</Guid>
</region>
<region>
<Name>Алушта</Name>
<Latitude>44.677112</Latitude>
<Longitude>34.4095393</Longitude>
<ParentName>АР Крим</ParentName>
<DefaultZoom>8</DefaultZoom>
<CanDrillDown>0</CanDrillDown>
<Level>2</Level>
<Guid>90d9001a9256762611dd391cdb5c88b8</Guid>
</region>
<region>
<Name>Бахчисарай</Name>
<Latitude>44.7522963</Latitude>
<Longitude>33.8534782</Longitude>
<ParentName>АР Крим</ParentName>
<DefaultZoom>8</DefaultZoom>
<CanDrillDown>0</CanDrillDown>
<Level>2</Level>
<Guid>90d9001a9256762611dd391cdb5c88c3</Guid>
</region>
<region>
<Name>Джанкой</Name>
<Latitude>45.7093769</Latitude>
<Longitude>34.3898882</Longitude>
<ParentName>АР Крим</ParentName>
<DefaultZoom>8</DefaultZoom>
<CanDrillDown>0</CanDrillDown>
<Level>2</Level>
<Guid>90d9001a9256762611dd391cdb5c88ec</Guid>
</region>
<region>
<Name>Красноперекопськ</Name>
<Latitude>45.9565346</Latitude>
<Longitude>33.7979467</Longitude>
<ParentName>АР Крим</ParentName>
<DefaultZoom>8</DefaultZoom>
<CanDrillDown>0</CanDrillDown>
<Level>2</Level>
<Guid>90d9001a9256762611dd391cdb5c892d</Guid>
</region>
<region>
<Name>Сімферополь</Name>
<MainCity>1</MainCity>
<Latitude>44.945876</Latitude>
<Longitude>34.1074054</Longitude>
<ParentName>АР Крим</ParentName>
<DefaultZoom>8</DefaultZoom>
<CanDrillDown>0</CanDrillDown>
<Level>2</Level>
<Guid>90d9001a9256762611dd391cdb5c88b7</Guid>
</region>
<region>
<Name>Саки</Name>
<Latitude>45.1310903</Latitude>
<Longitude>33.6017516</Longitude>
<ParentName>АР Крим</ParentName>
<DefaultZoom>8</DefaultZoom>
<CanDrillDown>0</CanDrillDown>
<Level>2</Level>
<Guid>b6f5001d92f7869711de0d45ae7a32c4</Guid>
</region>
<region>
<Name>Феодосія</Name>
<Latitude>45.0425994</Latitude>
<Longitude>35.3752971</Longitude>
<ParentName>АР Крим</ParentName>
<DefaultZoom>8</DefaultZoom>
<CanDrillDown>0</CanDrillDown>
<Level>2</Level>
<Guid>90d9001a9256762611dd391ce221d62d</Guid>
</region>
<region>
<Name>Ялта</Name>
<Latitude>44.4970632</Latitude>
<Longitude>34.1585922</Longitude>
<ParentName>АР Крим</ParentName>
<DefaultZoom>8</DefaultZoom>
<CanDrillDown>0</CanDrillDown>
<Level>2</Level>
<Guid>90d9001a9256762611dd391ce221d653</Guid>
</region>
<region>
<Name>Севастополь</Name>
<Latitude>44.6114503</Latitude>
<Longitude>33.5224182</Longitude>
<ParentName>АР Крим</ParentName>
<DefaultZoom>8</DefaultZoom>
<CanDrillDown>0</CanDrillDown>
<Level>2</Level>
<Guid>90d9001a9256762611dd391cdb5c88c1</Guid>
</region>
<region>
<Name>Конотоп</Name>
<Latitude>51.2407148</Latitude>
<Longitude>33.2112791</Longitude>
<ParentName>Сумська область</ParentName>
<DefaultZoom>8</DefaultZoom>
<CanDrillDown>0</CanDrillDown>
<Level>2</Level>
<Guid>90d9001a9256762611dd391cdb5c8923</Guid>
</region>
<region>
<Name>Охтирка</Name>
<Latitude>50.30906</Latitude>
<Longitude>34.8980699</Longitude>
<ParentName>Сумська область</ParentName>
<DefaultZoom>8</DefaultZoom>
<CanDrillDown>0</CanDrillDown>
<Level>2</Level>
<Guid>90d9001a9256762611dd391cdb5c895d</Guid>
</region>
<region>
<Name>Ромни</Name>
<Latitude>50.74207</Latitude>
<Longitude>33.4877</Longitude>
<ParentName>Сумська область</ParentName>
<DefaultZoom>8</DefaultZoom>
<CanDrillDown>0</CanDrillDown>
<Level>2</Level>
<Guid>90d9001a9256762611dd391cdb5c896f</Guid>
</region>
<region>
<Name>Суми</Name>
<MainCity>1</MainCity>
<Latitude>50.9130202</Latitude>
<Longitude>34.7945068</Longitude>
<ParentName>Сумська область</ParentName>
<DefaultZoom>8</DefaultZoom>
<CanDrillDown>0</CanDrillDown>
<Level>2</Level>
<Guid>90d9001a9256762611dd391cdb5c88e5</Guid>
</region>
<region>
<Name>Шостка</Name>
<Latitude>51.86474</Latitude>
<Longitude>33.47259</Longitude>
<ParentName>Сумська область</ParentName>
<DefaultZoom>8</DefaultZoom>
<CanDrillDown>0</CanDrillDown>
<Level>2</Level>
<Guid>90d9001a9256762611dd391ce221d64c</Guid>
</region>
<region>
<Name>Волочиськ</Name>
<Latitude>49.5360254</Latitude>
<Longitude>26.2124956</Longitude>
<ParentName>Хмельницька область</ParentName>
<DefaultZoom>8</DefaultZoom>
<CanDrillDown>0</CanDrillDown>
<Level>2</Level>
<Guid>b509001d92f7869811de407906f878ec</Guid>
</region>
<region>
<Name>Зборів</Name>
<Latitude>49.66335</Latitude>
<Longitude>25.14256</Longitude>
<ParentName>Тернопільська область</ParentName>
<DefaultZoom>8</DefaultZoom>
<CanDrillDown>0</CanDrillDown>
<Level>2</Level>
<Guid>b509001d92f7869811de407906f878f4</Guid>
</region>
<region>
<Name>Тернопіль</Name>
<MainCity>1</MainCity>
<Latitude>49.5557994</Latitude>
<Longitude>25.5917286</Longitude>
<ParentName>Тернопільська область</ParentName>
<DefaultZoom>8</DefaultZoom>
<CanDrillDown>0</CanDrillDown>
<Level>2</Level>
<Guid>90d9001a9256762611dd391cdb5c8900</Guid>
</region>
<region>
<Name>Ужгород</Name>
<MainCity>1</MainCity>
<Latitude>48.6223502</Latitude>
<Longitude>22.3021255</Longitude>
<ParentName>Закарпатська область</ParentName>
<DefaultZoom>8</DefaultZoom>
<CanDrillDown>0</CanDrillDown>
<Level>2</Level>
<Guid>90d9001a9256762611dd391ce221d627</Guid>
</region>
<region>
<Name>Умань</Name>
<Latitude>48.7440014</Latitude>
<Longitude>30.2237716</Longitude>
<ParentName>Черкаська область</ParentName>
<DefaultZoom>8</DefaultZoom>
<CanDrillDown>0</CanDrillDown>
<Level>2</Level>
<Guid>90d9001a9256762611dd391ce221d62a</Guid>
</region>
<region>
<Name>Ізюм</Name>
<Latitude>49.1913721</Latitude>
<Longitude>37.2784125</Longitude>
<ParentName>Харківська область</ParentName>
<DefaultZoom>8</DefaultZoom>
<CanDrillDown>0</CanDrillDown>
<Level>2</Level>
<Guid>90d9001a9256762611dd391cdb5c8909</Guid>
</region>
<region>
<Name>Куп`янськ</Name>
<Latitude>49.7096957</Latitude>
<Longitude>37.6120427</Longitude>
<ParentName>Харківська область</ParentName>
<DefaultZoom>8</DefaultZoom>
<CanDrillDown>0</CanDrillDown>
<Level>2</Level>
<Guid>b6f5001d92f7869711de0d45ae7a32bc</Guid>
</region>
<region>
<Name>Харків</Name>
<MainCity>1</MainCity>
<Latitude>49.9901077</Latitude>
<Longitude>36.2302803</Longitude>
<ParentName>Харківська область</ParentName>
<DefaultZoom>8</DefaultZoom>
<CanDrillDown>0</CanDrillDown>
<Level>2</Level>
<Guid>90d9001a9256762611dd391cdb5c88e0</Guid>
</region>
<region>
<Name>Чугуїв</Name>
<Latitude>49.8359398</Latitude>
<Longitude>36.689083</Longitude>
<ParentName>Харківська область</ParentName>
<DefaultZoom>8</DefaultZoom>
<CanDrillDown>0</CanDrillDown>
<Level>2</Level>
<Guid>90d9001a9256762611dd391ce221d648</Guid>
</region>
<region>
<Name>Каховка</Name>
<Latitude>46.79832</Latitude>
<Longitude>33.47465</Longitude>
<ParentName>Херсонська область</ParentName>
<DefaultZoom>8</DefaultZoom>
<CanDrillDown>0</CanDrillDown>
<Level>2</Level>
<Guid>90d9001a9256762611dd391cdb5c8917</Guid>
</region>
<region>
<Name>Нова Каховка</Name>
<Latitude>46.74751</Latitude>
<Longitude>33.39809</Longitude>
<ParentName>Херсонська область</ParentName>
<DefaultZoom>8</DefaultZoom>
<CanDrillDown>0</CanDrillDown>
<Level>2</Level>
<Guid>90d9001a9256762611dd391cdb5c8951</Guid>
</region>
<region>
<Name>Скадовськ</Name>
<Latitude>46.1199251</Latitude>
<Longitude>32.9109127</Longitude>
<ParentName>Херсонська область</ParentName>
<DefaultZoom>8</DefaultZoom>
<CanDrillDown>0</CanDrillDown>
<Level>2</Level>
<Guid>90d9001a9256762611dd391cdb5c897b</Guid>
</region>
<region>
<Name>Херсон</Name>
<MainCity>1</MainCity>
<Latitude>46.6551209</Latitude>
<Longitude>32.6131115</Longitude>
<ParentName>Херсонська область</ParentName>
<DefaultZoom>8</DefaultZoom>
<CanDrillDown>0</CanDrillDown>
<Level>2</Level>
<Guid>90d9001a9256762611dd391cdb5c88cc</Guid>
</region>
<region>
<Name>Цюрупинськ</Name>
<Latitude>46.6249473</Latitude>
<Longitude>32.7251086</Longitude>
<ParentName>Херсонська область</ParentName>
<DefaultZoom>8</DefaultZoom>
<CanDrillDown>0</CanDrillDown>
<Level>2</Level>
<Guid>90d9001a9256762611dd391ce221d63e</Guid>
</region>
<region>
<Name>Городок(Хмельницький)</Name>
<Latitude>49.1652124</Latitude>
<Longitude>26.5865127</Longitude>
<ParentName>Хмельницька область</ParentName>
<DefaultZoom>8</DefaultZoom>
<CanDrillDown>0</CanDrillDown>
<Level>2</Level>
<Guid>b9fc0021918b679a11de577ea4502bea</Guid>
</region>
<region>
<Name>Дунаївці</Name>
<Latitude>48.8881943</Latitude>
<Longitude>26.8591435</Longitude>
<ParentName>Хмельницька область</ParentName>
<DefaultZoom>8</DefaultZoom>
<CanDrillDown>0</CanDrillDown>
<Level>2</Level>
<Guid>b509001d92f7869811de4078f70622ea</Guid>
</region>
<region>
<Name>Кам`янець-Подільський</Name>
<Latitude>48.6769373</Latitude>
<Longitude>26.58588</Longitude>
<ParentName>Хмельницька область</ParentName>
<DefaultZoom>8</DefaultZoom>
<CanDrillDown>0</CanDrillDown>
<Level>2</Level>
<Guid>90d9001a9256762611dd391cdb5c8914</Guid>
</region>
<region>
<Name>Славута</Name>
<Latitude>50.2953197</Latitude>
<Longitude>26.8607928</Longitude>
<ParentName>Хмельницька область</ParentName>
<DefaultZoom>8</DefaultZoom>
<CanDrillDown>0</CanDrillDown>
<Level>2</Level>
<Guid>b509001d92f7869811de407906f8793e</Guid>
</region>
<region>
<Name>Хмельницький</Name>
<MainCity>1</MainCity>
<Latitude>49.4196404</Latitude>
<Longitude>26.9793793</Longitude>
<ParentName>Хмельницька область</ParentName>
<DefaultZoom>8</DefaultZoom>
<CanDrillDown>0</CanDrillDown>
<Level>2</Level>
<Guid>90d9001a9256762611dd391cdb5c88ac</Guid>
</region>
<region>
<Name>Шепетівка</Name>
<Latitude>50.1813085</Latitude>
<Longitude>27.0622927</Longitude>
<ParentName>Хмельницька область</ParentName>
<DefaultZoom>8</DefaultZoom>
<CanDrillDown>0</CanDrillDown>
<Level>2</Level>
<Guid>90d9001a9256762611dd391ce221d64b</Guid>
</region>
<region>
<Name>Городище</Name>
<Latitude>49.28947</Latitude>
<Longitude>31.44562</Longitude>
<ParentName>Черкаська область</ParentName>
<DefaultZoom>8</DefaultZoom>
<CanDrillDown>0</CanDrillDown>
<Level>2</Level>
<Guid>b509001d92f7869811de407906f87986</Guid>
</region>
<region>
<Name>Золотоноша</Name>
<Latitude>49.6687964</Latitude>
<Longitude>32.0433262</Longitude>
<ParentName>Черкаська область</ParentName>
<DefaultZoom>8</DefaultZoom>
<CanDrillDown>0</CanDrillDown>
<Level>2</Level>
<Guid>90d9001a9256762611dd391cdb5c8903</Guid>
</region>
<region>
<Name>Корсунь-Шевченківський</Name>
<Latitude>49.417533</Latitude>
<Longitude>31.2560941</Longitude>
<ParentName>Черкаська область</ParentName>
<DefaultZoom>8</DefaultZoom>
<CanDrillDown>0</CanDrillDown>
<Level>2</Level>
<Guid>b509001d92f7869811de407906f8797a</Guid>
</region>
<region>
<Name>Сміла</Name>
<Latitude>49.22699</Latitude>
<Longitude>31.8516</Longitude>
<ParentName>Черкаська область</ParentName>
<DefaultZoom>8</DefaultZoom>
<CanDrillDown>0</CanDrillDown>
<Level>2</Level>
<Guid>90d9001a9256762611dd391cdb5c8980</Guid>
</region>
<region>
<Name>Черкаси</Name>
<MainCity>1</MainCity>
<Latitude>49.4385726</Latitude>
<Longitude>32.0669817</Longitude>
<ParentName>Черкаська область</ParentName>
<DefaultZoom>8</DefaultZoom>
<CanDrillDown>0</CanDrillDown>
<Level>2</Level>
<Guid>90d9001a9256762611dd391cdb5c8902</Guid>
</region>
<region>
<Name>Сторожинець</Name>
<Latitude>48.163016</Latitude>
<Longitude>25.7208194</Longitude>
<ParentName>Чернівецька область</ParentName>
<DefaultZoom>8</DefaultZoom>
<CanDrillDown>0</CanDrillDown>
<Level>2</Level>
<Guid>88ed001d92f7869711ddc8702f74cb90</Guid>
</region>
<region>
<Name>Чернівці</Name>
<MainCity>1</MainCity>
<Latitude>48.2864129</Latitude>
<Longitude>25.9376851</Longitude>
<ParentName>Чернівецька область</ParentName>
<DefaultZoom>8</DefaultZoom>
<CanDrillDown>0</CanDrillDown>
<Level>2</Level>
<Guid>90d9001a9256762611dd391ce221d642</Guid>
</region>
<region>
<Name>Ніжин</Name>
<Latitude>51.0486697</Latitude>
<Longitude>31.8894908</Longitude>
<ParentName>Чернігівська область</ParentName>
<DefaultZoom>8</DefaultZoom>
<CanDrillDown>0</CanDrillDown>
<Level>2</Level>
<Guid>96a9001d92f7869811dd828976678793</Guid>
</region>
<region>
<Name>Прилуки</Name>
<Latitude>50.5892396</Latitude>
<Longitude>32.3857091</Longitude>
<ParentName>Чернігівська область</ParentName>
<DefaultZoom>8</DefaultZoom>
<CanDrillDown>0</CanDrillDown>
<Level>2</Level>
<Guid>b6f5001d92f7869711de0d45ae7a32c0</Guid>
</region>
<region>
<Name>Чернігів</Name>
<MainCity>1</MainCity>
<Latitude>51.4939012</Latitude>
<Longitude>31.2947749</Longitude>
<ParentName>Чернігівська область</ParentName>
<DefaultZoom>8</DefaultZoom>
<CanDrillDown>0</CanDrillDown>
<Level>2</Level>
<Guid>90d9001a9256762611dd391cdb5c897c</Guid>
</region>
<region>
<Name>Чорноморське</Name>
<Latitude>45.50709</Latitude>
<Longitude>32.70424</Longitude>
<ParentName>АР Крим</ParentName>
<DefaultZoom>8</DefaultZoom>
<CanDrillDown>0</CanDrillDown>
<Level>2</Level>
<Guid>b509001d92f7869811de407900065626</Guid>
</region>
<region>
<Name>Дебальцеве</Name>
<Latitude>48.3331084</Latitude>
<Longitude>38.4047549</Longitude>
<ParentName>Донецька область</ParentName>
<DefaultZoom>8</DefaultZoom>
<CanDrillDown>0</CanDrillDown>
<Level>2</Level>
<Guid>9570001d92f7869711de0416948a49cb</Guid>
</region>
<region>
<Name>Богородчани</Name>
<Latitude>48.80676</Latitude>
<Longitude>24.53659</Longitude>
<ParentName>Івано-Франківська область</ParentName>
<DefaultZoom>8</DefaultZoom>
<CanDrillDown>0</CanDrillDown>
<Level>2</Level>
<Guid>b509001d92f7869811de4078f70622da</Guid>
</region>
<region>
<Name>Верховина</Name>
<Latitude>48.1541001</Latitude>
<Longitude>24.8146799</Longitude>
<ParentName>Івано-Франківська область</ParentName>
<DefaultZoom>8</DefaultZoom>
<CanDrillDown>0</CanDrillDown>
<Level>2</Level>
<Guid>b509001d92f7869811de4078f70622de</Guid>
</region>
<region>
<Name>Галич</Name>
<Latitude>49.12468</Latitude>
<Longitude>24.72851</Longitude>
<ParentName>Івано-Франківська область</ParentName>
<DefaultZoom>8</DefaultZoom>
<CanDrillDown>0</CanDrillDown>
<Level>2</Level>
<Guid>b509001d92f7869811de4078f70622d2</Guid>
</region>
<region>
<Name>Городенка</Name>
<Latitude>48.6720598</Latitude>
<Longitude>25.4952722</Longitude>
<ParentName>Івано-Франківська область</ParentName>
<DefaultZoom>8</DefaultZoom>
<CanDrillDown>0</CanDrillDown>
<Level>2</Level>
<Guid>b509001d92f7869811de4078f70622e4</Guid>
</region>
<region>
<Name>Долина</Name>
<Latitude>48.9700062</Latitude>
<Longitude>24.0081455</Longitude>
<ParentName>Івано-Франківська область</ParentName>
<DefaultZoom>8</DefaultZoom>
<CanDrillDown>0</CanDrillDown>
<Level>2</Level>
<Guid>b509001d92f7869811de4078f70622d6</Guid>
</region>
<region>
<Name>Косів</Name>
<Latitude>48.315802</Latitude>
<Longitude>25.0983417</Longitude>
<ParentName>Івано-Франківська область</ParentName>
<DefaultZoom>8</DefaultZoom>
<CanDrillDown>0</CanDrillDown>
<Level>2</Level>
<Guid>b509001d92f7869811de4078f70622e0</Guid>
</region>
<region>
<Name>Надвірна</Name>
<Latitude>48.6342559</Latitude>
<Longitude>24.5748455</Longitude>
<ParentName>Івано-Франківська область</ParentName>
<DefaultZoom>8</DefaultZoom>
<CanDrillDown>0</CanDrillDown>
<Level>2</Level>
<Guid>b509001d92f7869811de4078f70622dc</Guid>
</region>
<region>
<Name>Рогатин</Name>
<Latitude>49.4078914</Latitude>
<Longitude>24.6075933</Longitude>
<ParentName>Івано-Франківська область</ParentName>
<DefaultZoom>8</DefaultZoom>
<CanDrillDown>0</CanDrillDown>
<Level>2</Level>
<Guid>b509001d92f7869811de4078f70622d4</Guid>
</region>
<region>
<Name>Рожнятів</Name>
<Latitude>48.93688</Latitude>
<Longitude>24.15361</Longitude>
<ParentName>Івано-Франківська область</ParentName>
<DefaultZoom>8</DefaultZoom>
<CanDrillDown>0</CanDrillDown>
<Level>2</Level>
<Guid>b509001d92f7869811de4078f70622d8</Guid>
</region>
<region>
<Name>Тисмениця</Name>
<Latitude>48.9003491</Latitude>
<Longitude>24.8520255</Longitude>
<ParentName>Івано-Франківська область</ParentName>
<DefaultZoom>8</DefaultZoom>
<CanDrillDown>0</CanDrillDown>
<Level>2</Level>
<Guid>b509001d92f7869811de4078f70622e8</Guid>
</region>
<region>
<Name>Тлумач</Name>
<Latitude>48.8704411</Latitude>
<Longitude>25.000818</Longitude>
<ParentName>Івано-Франківська область</ParentName>
<DefaultZoom>8</DefaultZoom>
<CanDrillDown>0</CanDrillDown>
<Level>2</Level>
<Guid>b509001d92f7869811de4078f70622e6</Guid>
</region>
<region>
<Name>Болград(Ізмаїл)</Name>
<Latitude>45.6942</Latitude>
<Longitude>28.60291</Longitude>
<ParentName>Одеська область</ParentName>
<DefaultZoom>8</DefaultZoom>
<CanDrillDown>0</CanDrillDown>
<Level>2</Level>
<Guid>90d9001a9256762611dd391cdb5c88d3</Guid>
</region>
<region>
<Name>Кілія</Name>
<Latitude>45.4628</Latitude>
<Longitude>29.25762</Longitude>
<ParentName>Одеська область</ParentName>
<DefaultZoom>8</DefaultZoom>
<CanDrillDown>0</CanDrillDown>
<Level>2</Level>
<Guid>b509001d92f7869811de407900065604</Guid>
</region>
<region>
<Name>Рені</Name>
<Latitude>45.46932</Latitude>
<Longitude>28.29426</Longitude>
<ParentName>Одеська область</ParentName>
<DefaultZoom>8</DefaultZoom>
<CanDrillDown>0</CanDrillDown>
<Level>2</Level>
<Guid>b509001d92f7869811de407900065602</Guid>
</region>
<region>
<Name>Бородянка</Name>
<Latitude>50.6465712</Latitude>
<Longitude>29.9255843</Longitude>
<ParentName>Київська область</ParentName>
<DefaultZoom>8</DefaultZoom>
<CanDrillDown>0</CanDrillDown>
<Level>2</Level>
<Guid>b509001d92f7869811de4078f70622f0</Guid>
</region>
<region>
<Name>Привітне</Name>
<Latitude>44.82216</Latitude>
<Longitude>34.67628</Longitude>
<ParentName>АР Крим</ParentName>
<DefaultZoom>8</DefaultZoom>
<CanDrillDown>0</CanDrillDown>
<Level>2</Level>
<Guid>91c2e85e9010909711e0a929b6e8345c</Guid>
</region>
<region>
<Name>Рибаче</Name>
<Latitude>44.7729007</Latitude>
<Longitude>34.5964556</Longitude>
<ParentName>АР Крим</ParentName>
<DefaultZoom>8</DefaultZoom>
<CanDrillDown>0</CanDrillDown>
<Level>2</Level>
<Guid>91c2e85e9010909711e0a929b6e8345d</Guid>
</region>
<region>
<Name>Перевальськ</Name>
<Latitude>48.44009</Latitude>
<Longitude>38.79959</Longitude>
<ParentName>Луганська область</ParentName>
<DefaultZoom>8</DefaultZoom>
<CanDrillDown>0</CanDrillDown>
<Level>2</Level>
<Guid>b509001d92f7869811de4078f706233c</Guid>
</region>
<region>
<Name>Сіверськ</Name>
<Latitude>48.87302</Latitude>
<Longitude>38.09543</Longitude>
<ParentName>Донецька область</ParentName>
<DefaultZoom>8</DefaultZoom>
<CanDrillDown>0</CanDrillDown>
<Level>2</Level>
<Guid>a0c3b20c8c0df68111e0d525955e9579</Guid>
</region>
<region>
<Name>Соледар</Name>
<Latitude>48.67287</Latitude>
<Longitude>38.115</Longitude>
<ParentName>Донецька область</ParentName>
<DefaultZoom>8</DefaultZoom>
<CanDrillDown>0</CanDrillDown>
<Level>2</Level>
<Guid>a0c3b20c8c0df68111e0d525955e9578</Guid>
</region>
<region>
<Name>Часів Яр</Name>
<Latitude>48.59218</Latitude>
<Longitude>37.86541</Longitude>
<ParentName>Донецька область</ParentName>
<DefaultZoom>8</DefaultZoom>
<CanDrillDown>0</CanDrillDown>
<Level>2</Level>
<Guid>a0c3b20c8c0df68111e0d525955e957a</Guid>
</region>
<region>
<Name>Богуслав</Name>
<Latitude>49.54765</Latitude>
<Longitude>30.8733</Longitude>
<ParentName>Київська область</ParentName>
<DefaultZoom>8</DefaultZoom>
<CanDrillDown>0</CanDrillDown>
<Level>2</Level>
<Guid>b509001d92f7869811de4078f706230a</Guid>
</region>
<region>
<Name>Володарка</Name>
<Latitude>49.5224168</Latitude>
<Longitude>29.9281013</Longitude>
<ParentName>Київська область</ParentName>
<DefaultZoom>8</DefaultZoom>
<CanDrillDown>0</CanDrillDown>
<Level>2</Level>
<Guid>b509001d92f7869811de4078f7062300</Guid>
</region>
<region>
<Name>Кагарлик</Name>
<Latitude>49.86523</Latitude>
<Longitude>30.82283</Longitude>
<ParentName>Київська область</ParentName>
<DefaultZoom>8</DefaultZoom>
<CanDrillDown>0</CanDrillDown>
<Level>2</Level>
<Guid>b509001d92f7869811de4078f706230e</Guid>
</region>
<region>
<Name>Рокитне(Біла Церква)</Name>
<Latitude>49.68704</Latitude>
<Longitude>30.47264</Longitude>
<ParentName>Київська область</ParentName>
<DefaultZoom>8</DefaultZoom>
<CanDrillDown>0</CanDrillDown>
<Level>2</Level>
<Guid>b509001d92f7869811de4078f7062306</Guid>
</region>
<region>
<Name>Сквира</Name>
<Latitude>49.73408</Latitude>
<Longitude>29.66309</Longitude>
<ParentName>Київська область</ParentName>
<DefaultZoom>8</DefaultZoom>
<CanDrillDown>0</CanDrillDown>
<Level>2</Level>
<Guid>b509001d92f7869811de4078f70622fe</Guid>
</region>
<region>
<Name>Ставище</Name>
<Latitude>49.38389</Latitude>
<Longitude>30.19936</Longitude>
<ParentName>Київська область</ParentName>
<DefaultZoom>8</DefaultZoom>
<CanDrillDown>0</CanDrillDown>
<Level>2</Level>
<Guid>b509001d92f7869811de4078f7062304</Guid>
</region>
<region>
<Name>Тараща</Name>
<Latitude>49.55589</Latitude>
<Longitude>30.50251</Longitude>
<ParentName>Київська область</ParentName>
<DefaultZoom>8</DefaultZoom>
<CanDrillDown>0</CanDrillDown>
<Level>2</Level>
<Guid>b509001d92f7869811de4078f7062308</Guid>
</region>
<region>
<Name>Тетіїв</Name>
<Latitude>49.36981</Latitude>
<Longitude>29.68266</Longitude>
<ParentName>Київська область</ParentName>
<DefaultZoom>8</DefaultZoom>
<CanDrillDown>0</CanDrillDown>
<Level>2</Level>
<Guid>b509001d92f7869811de4078f7062302</Guid>
</region>
<region>
<Name>Арциз</Name>
<Latitude>45.99632</Latitude>
<Longitude>29.43169</Longitude>
<ParentName>Одеська область</ParentName>
<DefaultZoom>8</DefaultZoom>
<CanDrillDown>0</CanDrillDown>
<Level>2</Level>
<Guid>b509001d92f7869811de4079000655ea</Guid>
</region>
<region>
<Name>Андрушівка</Name>
<Latitude>50.02968</Latitude>
<Longitude>29.0197</Longitude>
<ParentName>Житомирська область</ParentName>
<DefaultZoom>8</DefaultZoom>
<CanDrillDown>0</CanDrillDown>
<Level>2</Level>
<Guid>b509001d92f7869811de3f5d69da41c3</Guid>
</region>
<region>
<Name>Брусилів</Name>
<Latitude>50.28305</Latitude>
<Longitude>29.51889</Longitude>
<ParentName>Житомирська область</ParentName>
<DefaultZoom>8</DefaultZoom>
<CanDrillDown>0</CanDrillDown>
<Level>2</Level>
<Guid>b509001d92f7869811de3f5d69da41ed</Guid>
</region>
<region>
<Name>Козятин</Name>
<Latitude>49.7178387</Latitude>
<Longitude>28.8322522</Longitude>
<ParentName>Вінницька область</ParentName>
<DefaultZoom>8</DefaultZoom>
<CanDrillDown>0</CanDrillDown>
<Level>2</Level>
<Guid>b509001d92f7869811de3f4f697a860d</Guid>
</region>
<region>
<Name>Любар</Name>
<Latitude>49.92256</Latitude>
<Longitude>27.76074</Longitude>
<ParentName>Житомирська область</ParentName>
<DefaultZoom>8</DefaultZoom>
<CanDrillDown>0</CanDrillDown>
<Level>2</Level>
<Guid>b509001d92f7869811de3f5d69da41c9</Guid>
</region>
<region>
<Name>Попільня</Name>
<Latitude>49.94556</Latitude>
<Longitude>29.4595</Longitude>
<ParentName>Житомирська область</ParentName>
<DefaultZoom>8</DefaultZoom>
<CanDrillDown>0</CanDrillDown>
<Level>2</Level>
<Guid>b509001d92f7869811de3f5d69da41c0</Guid>
</region>
<region>
<Name>Романів</Name>
<Latitude>50.14744</Latitude>
<Longitude>27.93102</Longitude>
<ParentName>Житомирська область</ParentName>
<DefaultZoom>8</DefaultZoom>
<CanDrillDown>0</CanDrillDown>
<Level>2</Level>
<Guid>b509001d92f7869811de3f5d69da41cc</Guid>
</region>
<region>
<Name>Ружин</Name>
<Latitude>49.72171999999999</Latitude>
<Longitude>29.20475</Longitude>
<ParentName>Житомирська область</ParentName>
<DefaultZoom>8</DefaultZoom>
<CanDrillDown>0</CanDrillDown>
<Level>2</Level>
<Guid>b509001d92f7869811de3f5d69da41bd</Guid>
</region>
<region>
<Name>Чуднів</Name>
<Latitude>50.05234</Latitude>
<Longitude>28.11539</Longitude>
<ParentName>Житомирська область</ParentName>
<DefaultZoom>8</DefaultZoom>
<CanDrillDown>0</CanDrillDown>
<Level>2</Level>
<Guid>b509001d92f7869811de3f5d69da41c6</Guid>
</region>
<region>
<Name>Андріївка</Name>
<Latitude>49.54559</Latitude>
<Longitude>36.61159</Longitude>
<ParentName>Запорізька область</ParentName>
<DefaultZoom>8</DefaultZoom>
<CanDrillDown>0</CanDrillDown>
<Level>2</Level>
<Guid>884b000c290fbeaa11df8344f4890a83</Guid>
</region>
<region>
<Name>Приморськ</Name>
<Latitude>46.7343149</Latitude>
<Longitude>36.3472151</Longitude>
<ParentName>Запорізька область</ParentName>
<DefaultZoom>8</DefaultZoom>
<CanDrillDown>0</CanDrillDown>
<Level>2</Level>
<Guid>b509001d92f7869811de3f5d69da41f6</Guid>
</region>
<region>
<Name>Баришівка</Name>
<Latitude>50.36407</Latitude>
<Longitude>31.32958</Longitude>
<ParentName>Київська область</ParentName>
<DefaultZoom>8</DefaultZoom>
<CanDrillDown>0</CanDrillDown>
<Level>2</Level>
<Guid>b509001d92f7869811de4078f70622f6</Guid>
</region>
<region>
<Name>Згурівка</Name>
<Latitude>50.4950666</Latitude>
<Longitude>31.7691817</Longitude>
<ParentName>Київська область</ParentName>
<DefaultZoom>8</DefaultZoom>
<CanDrillDown>0</CanDrillDown>
<Level>2</Level>
<Guid>b509001d92f7869811de4078f70622f8</Guid>
</region>
<region>
<Name>Яготин</Name>
<Latitude>50.2758948</Latitude>
<Longitude>31.763485</Longitude>
<ParentName>Київська область</ParentName>
<DefaultZoom>8</DefaultZoom>
<CanDrillDown>0</CanDrillDown>
<Level>2</Level>
<Guid>b509001d92f7869811de4078f70622fa</Guid>
</region>
<region>
<Name>Козелець</Name>
<Latitude>50.9162903</Latitude>
<Longitude>31.1168947</Longitude>
<ParentName>Чернігівська область</ParentName>
<DefaultZoom>8</DefaultZoom>
<CanDrillDown>0</CanDrillDown>
<Level>2</Level>
<Guid>b509001d92f7869811de407906f879a2</Guid>
</region>
<region>
<Name>Іллінці</Name>
<Latitude>49.11301</Latitude>
<Longitude>29.20475</Longitude>
<ParentName>Вінницька область</ParentName>
<DefaultZoom>8</DefaultZoom>
<CanDrillDown>0</CanDrillDown>
<Level>2</Level>
<Guid>b509001d92f7869811de3f5d69da4151</Guid>
</region>
<region>
<Name>Бар</Name>
<Latitude>49.07352</Latitude>
<Longitude>27.6725</Longitude>
<ParentName>Вінницька область</ParentName>
<DefaultZoom>8</DefaultZoom>
<CanDrillDown>0</CanDrillDown>
<Level>2</Level>
<Guid>88ed001d92f7869711ddc8702f74cb93</Guid>
</region>
<region>
<Name>Бершадь</Name>
<Latitude>48.36594</Latitude>
<Longitude>29.51889</Longitude>
<ParentName>Вінницька область</ParentName>
<DefaultZoom>8</DefaultZoom>
<CanDrillDown>0</CanDrillDown>
<Level>2</Level>
<Guid>b509001d92f7869811de3f5d69da417b</Guid>
</region>
<region>
<Name>Гайсин</Name>
<Latitude>48.808007</Latitude>
<Longitude>29.3871433</Longitude>
<ParentName>Вінницька область</ParentName>
<DefaultZoom>8</DefaultZoom>
<CanDrillDown>0</CanDrillDown>
<Level>2</Level>
<Guid>b509001d92f7869811de3f5d69da4181</Guid>
</region>
<region>
<Name>Калинівка(Вінниця)</Name>
<Latitude>49.45976</Latitude>
<Longitude>28.52017</Longitude>
<ParentName>Вінницька область</ParentName>
<DefaultZoom>8</DefaultZoom>
<CanDrillDown>0</CanDrillDown>
<Level>2</Level>
</region>
<region>
<Name>Крижопіль</Name>
<Latitude>48.38568</Latitude>
<Longitude>28.86941</Longitude>
<ParentName>Вінницька область</ParentName>
<DefaultZoom>8</DefaultZoom>
<CanDrillDown>0</CanDrillDown>
<Level>2</Level>
<Guid>b509001d92f7869811de3f5d69da4172</Guid>
</region>
<region>
<Name>Літин</Name>
<Latitude>49.32106</Latitude>
<Longitude>28.09136</Longitude>
<ParentName>Вінницька область</ParentName>
<DefaultZoom>8</DefaultZoom>
<CanDrillDown>0</CanDrillDown>
<Level>2</Level>
<Guid>b509001d92f7869811de3f59b61307c8</Guid>
</region>
<region>
<Name>Липовець</Name>
<Latitude>49.22699</Latitude>
<Longitude>29.05884</Longitude>
<ParentName>Вінницька область</ParentName>
<DefaultZoom>8</DefaultZoom>
<CanDrillDown>0</CanDrillDown>
<Level>2</Level>
<Guid>b509001d92f7869811de3f5d69da414b</Guid>
</region>
<region>
<Name>Муровані Курилівці</Name>
<Latitude>48.71303</Latitude>
<Longitude>27.53586</Longitude>
<ParentName>Вінницька область</ParentName>
<DefaultZoom>8</DefaultZoom>
<CanDrillDown>0</CanDrillDown>
<Level>2</Level>
<Guid>b509001d92f7869811de3f5d69da4166</Guid>
</region>
<region>
<Name>Немирів</Name>
<Latitude>48.9692865</Latitude>
<Longitude>28.8347979</Longitude>
<ParentName>Вінницька область</ParentName>
<DefaultZoom>8</DefaultZoom>
<CanDrillDown>0</CanDrillDown>
<Level>2</Level>
<Guid>b509001d92f7869811de3f5d69da4154</Guid>
</region>
<region>
<Name>Оратів</Name>
<Latitude>49.19472</Latitude>
<Longitude>29.53056</Longitude>
<ParentName>Вінницька область</ParentName>
<DefaultZoom>8</DefaultZoom>
<CanDrillDown>0</CanDrillDown>
<Level>2</Level>
<Guid>b509001d92f7869811de3f5d69da414e</Guid>
</region>
<region>
<Name>Піщанка</Name>
<Latitude>48.2032</Latitude>
<Longitude>28.89404</Longitude>
<ParentName>Вінницька область</ParentName>
<DefaultZoom>8</DefaultZoom>
<CanDrillDown>0</CanDrillDown>
<Level>2</Level>
<Guid>b509001d92f7869811de3f5d69da416f</Guid>
</region>
<region>
<Name>Погребище</Name>
<Latitude>49.48414</Latitude>
<Longitude>29.25934</Longitude>
<ParentName>Вінницька область</ParentName>
<DefaultZoom>8</DefaultZoom>
<CanDrillDown>0</CanDrillDown>
<Level>2</Level>
<Guid>b509001d92f7869811de3f59b61307c5</Guid>
</region>
<region>
<Name>Теплик</Name>
<Latitude>48.6636</Latitude>
<Longitude>29.74686</Longitude>
<ParentName>Вінницька область</ParentName>
<DefaultZoom>8</DefaultZoom>
<CanDrillDown>0</CanDrillDown>
<Level>2</Level>
<Guid>b509001d92f7869811de3f5d69da417e</Guid>
</region>
<region>
<Name>Тиврів</Name>
<Latitude>49.0144585</Latitude>
<Longitude>28.5085373</Longitude>
<ParentName>Вінницька область</ParentName>
<DefaultZoom>8</DefaultZoom>
<CanDrillDown>0</CanDrillDown>
<Level>2</Level>
<Guid>b509001d92f7869811de3f5d69da4157</Guid>
</region>
<region>
<Name>Томашпіль</Name>
<Latitude>48.54378</Latitude>
<Longitude>28.51433</Longitude>
<ParentName>Вінницька область</ParentName>
<DefaultZoom>8</DefaultZoom>
<CanDrillDown>0</CanDrillDown>
<Level>2</Level>
<Guid>b509001d92f7869811de3f5d69da4163</Guid>
</region>
<region>
<Name>Тростянець(Вінниця)</Name>
<Latitude>48.51227</Latitude>
<Longitude>29.22329</Longitude>
<ParentName>Вінницька область</ParentName>
<DefaultZoom>8</DefaultZoom>
<CanDrillDown>0</CanDrillDown>
<Level>2</Level>
<Guid>b509001d92f7869811de3f5d69da4178</Guid>
</region>
<region>
<Name>Тульчин</Name>
<Latitude>48.6743413</Latitude>
<Longitude>28.848464</Longitude>
<ParentName>Вінницька область</ParentName>
<DefaultZoom>8</DefaultZoom>
<CanDrillDown>0</CanDrillDown>
<Level>2</Level>
<Guid>b509001d92f7869811de3f5d69da4160</Guid>
</region>
<region>
<Name>Хмільник</Name>
<Latitude>49.5547446</Latitude>
<Longitude>27.9510374</Longitude>
<ParentName>Вінницька область</ParentName>
<DefaultZoom>8</DefaultZoom>
<CanDrillDown>0</CanDrillDown>
<Level>2</Level>
<Guid>b509001d92f7869811de3f59b61307bf</Guid>
</region>
<region>
<Name>Чернівці(Вінниця)</Name>
<Latitude>48.54069</Latitude>
<Longitude>28.125</Longitude>
<ParentName>Вінницька область</ParentName>
<DefaultZoom>8</DefaultZoom>
<CanDrillDown>0</CanDrillDown>
<Level>2</Level>
<Guid>b509001d92f7869811de3f5d69da415a</Guid>
</region>
<region>
<Name>Чечельник</Name>
<Latitude>48.21075</Latitude>
<Longitude>29.36337</Longitude>
<ParentName>Вінницька область</ParentName>
<DefaultZoom>8</DefaultZoom>
<CanDrillDown>0</CanDrillDown>
<Level>2</Level>
<Guid>b509001d92f7869811de3f5d69da4175</Guid>
</region>
<region>
<Name>Шаргород</Name>
<Latitude>48.7381</Latitude>
<Longitude>28.08277</Longitude>
<ParentName>Вінницька область</ParentName>
<DefaultZoom>8</DefaultZoom>
<CanDrillDown>0</CanDrillDown>
<Level>2</Level>
<Guid>b509001d92f7869811de3f5d69da415d</Guid>
</region>
<region>
<Name>Ямпіль(Вінниця)</Name>
<Latitude>48.2396145</Latitude>
<Longitude>28.2805174</Longitude>
<ParentName>Вінницька область</ParentName>
<DefaultZoom>8</DefaultZoom>
<CanDrillDown>0</CanDrillDown>
<Level>2</Level>
<Guid>b509001d92f7869811de3f5d69da416c</Guid>
</region>
<region>
<Name>Єланець</Name>
<Latitude>47.69749</Latitude>
<Longitude>31.85074</Longitude>
<ParentName>Миколаївська область</ParentName>
<DefaultZoom>8</DefaultZoom>
<CanDrillDown>0</CanDrillDown>
<Level>2</Level>
<Guid>b509001d92f7869811de407906f87960</Guid>
</region>
<region>
<Name>Братське</Name>
<Latitude>47.86468</Latitude>
<Longitude>31.57333</Longitude>
<ParentName>Миколаївська область</ParentName>
<DefaultZoom>8</DefaultZoom>
<CanDrillDown>0</CanDrillDown>
<Level>2</Level>
<Guid>b509001d92f7869811de407906f8795e</Guid>
</region>
<region>
<Name>Веселинове</Name>
<Latitude>47.35554</Latitude>
<Longitude>31.2355</Longitude>
<ParentName>Миколаївська область</ParentName>
<DefaultZoom>8</DefaultZoom>
<CanDrillDown>0</CanDrillDown>
<Level>2</Level>
<Guid>b509001d92f7869811de4079000655da</Guid>
</region>
<region>
<Name>Доманівка</Name>
<Latitude>47.63431</Latitude>
<Longitude>31.0017</Longitude>
<ParentName>Миколаївська область</ParentName>
<DefaultZoom>8</DefaultZoom>
<CanDrillDown>0</CanDrillDown>
<Level>2</Level>
<Guid>b509001d92f7869811de407906f8795a</Guid>
</region>
<region>
<Name>Вугледар</Name>
<Latitude>47.77834</Latitude>
<Longitude>37.25086</Longitude>
<ParentName>Донецька область</ParentName>
<DefaultZoom>8</DefaultZoom>
<CanDrillDown>0</CanDrillDown>
<Level>2</Level>
</region>
<region>
<Name>Докучаєвськ</Name>
<Latitude>47.74967</Latitude>
<Longitude>37.6686</Longitude>
<ParentName>Донецька область</ParentName>
<DefaultZoom>8</DefaultZoom>
<CanDrillDown>0</CanDrillDown>
<Level>2</Level>
</region>
<region>
<Name>Верхньодніпровськ</Name>
<Latitude>48.65467</Latitude>
<Longitude>34.33468</Longitude>
<ParentName>Дніпропетровська область</ParentName>
<DefaultZoom>8</DefaultZoom>
<CanDrillDown>0</CanDrillDown>
<Level>2</Level>
<Guid>bcd8001d92f7869711dda440441f7f9a</Guid>
</region>
<region>
<Name>Кринички</Name>
<Latitude>48.37486</Latitude>
<Longitude>34.4569</Longitude>
<ParentName>Дніпропетровська область</ParentName>
<DefaultZoom>8</DefaultZoom>
<CanDrillDown>0</CanDrillDown>
<Level>2</Level>
<Guid>b509001d92f7869811de3f5d69da4184</Guid>
</region>
<region>
<Name>Магдалинівка</Name>
<Latitude>48.92074</Latitude>
<Longitude>34.91867</Longitude>
<ParentName>Дніпропетровська область</ParentName>
<DefaultZoom>8</DefaultZoom>
<CanDrillDown>0</CanDrillDown>
<Level>2</Level>
<Guid>b509001d92f7869811de3f5d69da41a5</Guid>
</region>
<region>
<Name>Петриківка</Name>
<Latitude>48.7120245</Latitude>
<Longitude>34.6240969</Longitude>
<ParentName>Дніпропетровська область</ParentName>
<DefaultZoom>8</DefaultZoom>
<CanDrillDown>0</CanDrillDown>
<Level>2</Level>
<Guid>b509001d92f7869811de3f5d69da419f</Guid>
</region>
<region>
<Name>Синельникове</Name>
<Latitude>48.3269304</Latitude>
<Longitude>35.5246984</Longitude>
<ParentName>Дніпропетровська область</ParentName>
<DefaultZoom>8</DefaultZoom>
<CanDrillDown>0</CanDrillDown>
<Level>2</Level>
<Guid>b509001d92f7869811de3f5d69da419c</Guid>
</region>
<region>
<Name>Солоне</Name>
<Latitude>48.20423</Latitude>
<Longitude>34.87713</Longitude>
<ParentName>Дніпропетровська область</ParentName>
<DefaultZoom>8</DefaultZoom>
<CanDrillDown>0</CanDrillDown>
<Level>2</Level>
<Guid>b509001d92f7869811de3f5d69da4187</Guid>
</region>
<region>
<Name>Царичанка</Name>
<Latitude>48.9434</Latitude>
<Longitude>34.48986</Longitude>
<ParentName>Дніпропетровська область</ParentName>
<DefaultZoom>8</DefaultZoom>
<CanDrillDown>0</CanDrillDown>
<Level>2</Level>
<Guid>b509001d92f7869811de3f5d69da41a2</Guid>
</region>
<region>
<Name>Амвросіївка</Name>
<Latitude>47.79842</Latitude>
<Longitude>38.47077</Longitude>
<ParentName>Донецька область</ParentName>
<DefaultZoom>8</DefaultZoom>
<CanDrillDown>0</CanDrillDown>
<Level>2</Level>
<Guid>b509001d92f7869811de3f5d69da41ba</Guid>
</region>
<region>
<Name>Велика Новосілка</Name>
<Latitude>47.84091</Latitude>
<Longitude>36.83012</Longitude>
<ParentName>Донецька область</ParentName>
<DefaultZoom>8</DefaultZoom>
<CanDrillDown>0</CanDrillDown>
<Level>2</Level>
<Guid>b509001d92f7869811de3f5d69da41ae</Guid>
</region>
<region>
<Name>Мар`їнка</Name>
<Latitude>47.94348</Latitude>
<Longitude>37.50492</Longitude>
<ParentName>Донецька область</ParentName>
<DefaultZoom>8</DefaultZoom>
<CanDrillDown>0</CanDrillDown>
<Level>2</Level>
<Guid>b509001d92f7869811de3f5d69da41b1</Guid>
</region>
<region>
<Name>Старобешеве</Name>
<Latitude>47.7501</Latitude>
<Longitude>38.02479</Longitude>
<ParentName>Донецька область</ParentName>
<DefaultZoom>8</DefaultZoom>
<CanDrillDown>0</CanDrillDown>
<Level>2</Level>
<Guid>b509001d92f7869811de3f5d69da41b7</Guid>
</region>
<region>
<Name>Ясинувата</Name>
<Latitude>48.1247511</Latitude>
<Longitude>37.8512479</Longitude>
<ParentName>Донецька область</ParentName>
<DefaultZoom>8</DefaultZoom>
<CanDrillDown>0</CanDrillDown>
<Level>2</Level>
<Guid>b509001d92f7869811de3f5d69da41ab</Guid>
</region>
<region>
<Name>Радивилів</Name>
<Latitude>50.13061</Latitude>
<Longitude>25.25036</Longitude>
<ParentName>Рівненська область</ParentName>
<DefaultZoom>8</DefaultZoom>
<CanDrillDown>0</CanDrillDown>
<Level>2</Level>
<Guid>b509001d92f7869811de4078f7062372</Guid>
</region>
<region>
<Name>Кам`янка-Дніпровська (Запоріжжя)</Name>
<Latitude>47.48943</Latitude>
<Longitude>34.41021</Longitude>
<ParentName>Запорізька область</ParentName>
<DefaultZoom>8</DefaultZoom>
<CanDrillDown>0</CanDrillDown>
<Level>2</Level>
</region>
<region>
<Name>Коростишів</Name>
<Latitude>50.3186085</Latitude>
<Longitude>29.0555284</Longitude>
<ParentName>Житомирська область</ParentName>
<DefaultZoom>8</DefaultZoom>
<CanDrillDown>0</CanDrillDown>
<Level>2</Level>
<Guid>b509001d92f7869811de3f5d69da41ea</Guid>
</region>
<region>
<Name>Радомишль</Name>
<Latitude>50.50175</Latitude>
<Longitude>29.24252</Longitude>
<ParentName>Житомирська область</ParentName>
<DefaultZoom>8</DefaultZoom>
<CanDrillDown>0</CanDrillDown>
<Level>2</Level>
<Guid>b509001d92f7869811de3f5d69da41f0</Guid>
</region>
<region>
<Name>Вільногірськ</Name>
<Latitude>48.49365</Latitude>
<Longitude>34.02328</Longitude>
<ParentName>Дніпропетровська область</ParentName>
<DefaultZoom>8</DefaultZoom>
<CanDrillDown>0</CanDrillDown>
<Level>2</Level>
<Guid>bcd8001d92f7869711dda440441f7f98</Guid>
</region>
<region>
<Name>Вільнянськ</Name>
<Latitude>47.9433</Latitude>
<Longitude>35.43159</Longitude>
<ParentName>Запорізька область</ParentName>
<DefaultZoom>8</DefaultZoom>
<CanDrillDown>0</CanDrillDown>
<Level>2</Level>
<Guid>b509001d92f7869811de4063cfbeaca2</Guid>
</region>
<region>
<Name>Василівка</Name>
<Latitude>47.42866</Latitude>
<Longitude>35.2486</Longitude>
<ParentName>Запорізька область</ParentName>
<DefaultZoom>8</DefaultZoom>
<CanDrillDown>0</CanDrillDown>
<Level>2</Level>
<Guid>9198001d6045198311dd4bd0c5f70e4a</Guid>
</region>
<region>
<Name>Велика Білозерка</Name>
<Latitude>47.26936</Latitude>
<Longitude>34.68452</Longitude>
<ParentName>Запорізька область</ParentName>
<DefaultZoom>8</DefaultZoom>
<CanDrillDown>0</CanDrillDown>
<Level>2</Level>
<Guid>b509001d92f7869811de4063cfbeac9e</Guid>
</region>
<region>
<Name>Гуляйполе</Name>
<Latitude>47.666674</Latitude>
<Longitude>36.2543881</Longitude>
<ParentName>Запорізька область</ParentName>
<DefaultZoom>8</DefaultZoom>
<CanDrillDown>0</CanDrillDown>
<Level>2</Level>
<Guid>b509001d92f7869811de4063cfbeaca6</Guid>
</region>
<region>
<Name>Куйбишеве</Name>
<Latitude>47.3624</Latitude>
<Longitude>36.65108</Longitude>
<ParentName>Запорізька область</ParentName>
<DefaultZoom>8</DefaultZoom>
<CanDrillDown>0</CanDrillDown>
<Level>2</Level>
<Guid>b509001d92f7869811de4063cfbeac96</Guid>
</region>
<region>
<Name>Михайлівка</Name>
<Latitude>47.27005</Latitude>
<Longitude>35.21976</Longitude>
<ParentName>Запорізька область</ParentName>
<DefaultZoom>8</DefaultZoom>
<CanDrillDown>0</CanDrillDown>
<Level>2</Level>
<Guid>b509001d92f7869811de4063cfbeaca0</Guid>
</region>
<region>
<Name>Новомиколаївка</Name>
<Latitude>47.97146</Latitude>
<Longitude>35.89886</Longitude>
<ParentName>Запорізька область</ParentName>
<DefaultZoom>8</DefaultZoom>
<CanDrillDown>0</CanDrillDown>
<Level>2</Level>
<Guid>b509001d92f7869811de4063cfbeaca4</Guid>
</region>
<region>
<Name>Оріхів</Name>
<Latitude>47.57114</Latitude>
<Longitude>35.78968</Longitude>
<ParentName>Запорізька область</ParentName>
<DefaultZoom>8</DefaultZoom>
<CanDrillDown>0</CanDrillDown>
<Level>2</Level>
<Guid>9198001d6045198311dd4bd0c5f70e4e</Guid>
</region>
<region>
<Name>Пологи</Name>
<Latitude>47.48257</Latitude>
<Longitude>36.2524801</Longitude>
<ParentName>Запорізька область</ParentName>
<DefaultZoom>8</DefaultZoom>
<CanDrillDown>0</CanDrillDown>
<Level>2</Level>
<Guid>9198001d6045198311dd4bd0c5f70e4c</Guid>
</region>
<region>
<Name>Томаківка</Name>
<Latitude>47.8128265</Latitude>
<Longitude>34.7523182</Longitude>
<ParentName>Дніпропетровська область</ParentName>
<DefaultZoom>8</DefaultZoom>
<CanDrillDown>0</CanDrillDown>
<Level>2</Level>
<Guid>b509001d92f7869811de4063cfbeac9a</Guid>
</region>
<region>
<Name>Чернігівка</Name>
<Latitude>47.19486</Latitude>
<Longitude>36.2075</Longitude>
<ParentName>Запорізька область</ParentName>
<DefaultZoom>8</DefaultZoom>
<CanDrillDown>0</CanDrillDown>
<Level>2</Level>
<Guid>b509001d92f7869811de3f5d69da41f9</Guid>
</region>
<region>
<Name>Драбів</Name>
<Latitude>49.95449</Latitude>
<Longitude>32.1432499</Longitude>
<ParentName>Черкаська область</ParentName>
<DefaultZoom>8</DefaultZoom>
<CanDrillDown>0</CanDrillDown>
<Level>2</Level>
<Guid>b509001d92f7869811de407906f87972</Guid>
</region>
<region>
<Name>Чорнобай</Name>
<Latitude>49.6604438</Latitude>
<Longitude>32.3272553</Longitude>
<ParentName>Черкаська область</ParentName>
<DefaultZoom>8</DefaultZoom>
<CanDrillDown>0</CanDrillDown>
<Level>2</Level>
<Guid>b509001d92f7869811de407906f87970</Guid>
</region>
<region>
<Name>Бобринець</Name>
<Latitude>48.05729</Latitude>
<Longitude>32.15938</Longitude>
<ParentName>Кіровоградська область</ParentName>
<DefaultZoom>8</DefaultZoom>
<CanDrillDown>0</CanDrillDown>
<Level>2</Level>
<Guid>b509001d92f7869811de4078f706232e</Guid>
</region>
<region>
<Name>Добровеличківка</Name>
<Latitude>48.38791</Latitude>
<Longitude>31.17748</Longitude>
<ParentName>Кіровоградська область</ParentName>
<DefaultZoom>8</DefaultZoom>
<CanDrillDown>0</CanDrillDown>
<Level>2</Level>
<Guid>b509001d92f7869811de4078f7062328</Guid>
</region>
<region>
<Name>Знам`янка</Name>
<Latitude>48.7174653</Latitude>
<Longitude>32.6729358</Longitude>
<ParentName>Кіровоградська область</ParentName>
<DefaultZoom>8</DefaultZoom>
<CanDrillDown>0</CanDrillDown>
<Level>2</Level>
<Guid>bcd8001d92f7869711dda440441f7f94</Guid>
</region>
<region>
<Name>Компаніївка</Name>
<Latitude>48.24921</Latitude>
<Longitude>32.20299</Longitude>
<ParentName>Кіровоградська область</ParentName>
<DefaultZoom>8</DefaultZoom>
<CanDrillDown>0</CanDrillDown>
<Level>2</Level>
<Guid>b509001d92f7869811de4078f706232c</Guid>
</region>
<region>
<Name>Мала Виска</Name>
<Latitude>48.64025</Latitude>
<Longitude>31.63719</Longitude>
<ParentName>Кіровоградська область</ParentName>
<DefaultZoom>8</DefaultZoom>
<CanDrillDown>0</CanDrillDown>
<Level>2</Level>
<Guid>b509001d92f7869811de4078f7062324</Guid>
</region>
<region>
<Name>Новгородка</Name>
<Latitude>48.36559</Latitude>
<Longitude>32.65686</Longitude>
<ParentName>Кіровоградська область</ParentName>
<DefaultZoom>8</DefaultZoom>
<CanDrillDown>0</CanDrillDown>
<Level>2</Level>
<Guid>b509001d92f7869811de4078f7062334</Guid>
</region>
<region>
<Name>Новомиргород</Name>
<Latitude>48.7944</Latitude>
<Longitude>31.6499</Longitude>
<ParentName>Кіровоградська область</ParentName>
<DefaultZoom>8</DefaultZoom>
<CanDrillDown>0</CanDrillDown>
<Level>2</Level>
<Guid>b509001d92f7869811de4078f7062322</Guid>
</region>
<region>
<Name>Новоукраїнка</Name>
<Latitude>48.32199</Latitude>
<Longitude>31.52527</Longitude>
<ParentName>Кіровоградська область</ParentName>
<DefaultZoom>8</DefaultZoom>
<CanDrillDown>0</CanDrillDown>
<Level>2</Level>
<Guid>b509001d92f7869811de4078f706232a</Guid>
</region>
<region>
<Name>Олександрівка(Кіровоград)</Name>
<Latitude>48.96606</Latitude>
<Longitude>32.23835</Longitude>
<ParentName>Кіровоградська область</ParentName>
<DefaultZoom>8</DefaultZoom>
<CanDrillDown>0</CanDrillDown>
<Level>2</Level>
<Guid>b509001d92f7869811de4078f7062320</Guid>
</region>
<region>
<Name>Устинівка</Name>
<Latitude>47.95738</Latitude>
<Longitude>32.53635</Longitude>
<ParentName>Кіровоградська область</ParentName>
<DefaultZoom>8</DefaultZoom>
<CanDrillDown>0</CanDrillDown>
<Level>2</Level>
<Guid>b509001d92f7869811de4078f7062330</Guid>
</region>
<region>
<Name>Нова Ушиця</Name>
<Latitude>48.83062</Latitude>
<Longitude>27.26678</Longitude>
<ParentName>Хмельницька область</ParentName>
<DefaultZoom>8</DefaultZoom>
<CanDrillDown>0</CanDrillDown>
<Level>2</Level>
<Guid>b509001d92f7869811de4078f70622ec</Guid>
</region>
<region>
<Name>Чемерівці</Name>
<Latitude>49.01516</Latitude>
<Longitude>26.33766</Longitude>
<ParentName>Хмельницька область</ParentName>
<DefaultZoom>8</DefaultZoom>
<CanDrillDown>0</CanDrillDown>
<Level>2</Level>
<Guid>b9fc0021918b679a11de577ea4502bed</Guid>
</region>
<region>
<Name>Іванків</Name>
<Latitude>50.9333</Latitude>
<Longitude>29.90307</Longitude>
<ParentName>Київська область</ParentName>
<DefaultZoom>8</DefaultZoom>
<CanDrillDown>0</CanDrillDown>
<Level>2</Level>
<Guid>b509001d92f7869811de4078f70622f2</Guid>
</region>
<region>
<Name>Боярка</Name>
<Latitude>50.3356709</Latitude>
<Longitude>30.2847595</Longitude>
<ParentName>Київська область</ParentName>
<DefaultZoom>8</DefaultZoom>
<CanDrillDown>0</CanDrillDown>
<Level>2</Level>
<Guid>90d9001a9256762611dd391cdb5c88d6</Guid>
</region>
<region>
<Name>Буча</Name>
<Latitude>50.5485813</Latitude>
<Longitude>30.2207143</Longitude>
<ParentName>Київська область</ParentName>
<DefaultZoom>8</DefaultZoom>
<CanDrillDown>0</CanDrillDown>
<Level>2</Level>
<Guid>90d9001a9256762611dd391cdb5c88d9</Guid>
</region>
<region>
<Name>Васильків</Name>
<Latitude>50.17387</Latitude>
<Longitude>30.32158</Longitude>
<ParentName>Київська область</ParentName>
<DefaultZoom>8</DefaultZoom>
<CanDrillDown>0</CanDrillDown>
<Level>2</Level>
<Guid>90d9001a9256762611dd391cdb5c88da</Guid>
</region>
<region>
<Name>Гостомель</Name>
<Latitude>50.58826</Latitude>
<Longitude>30.25909</Longitude>
<ParentName>Київська область</ParentName>
<DefaultZoom>8</DefaultZoom>
<CanDrillDown>0</CanDrillDown>
<Level>2</Level>
<Guid>90d9001a9256762611dd391cdb5c88ea</Guid>
</region>
<region>
<Name>Красятичі</Name>
<Latitude>51.07818</Latitude>
<Longitude>29.63768</Longitude>
<ParentName>Київська область</ParentName>
<DefaultZoom>8</DefaultZoom>
<CanDrillDown>0</CanDrillDown>
<Level>2</Level>
<Guid>b509001d92f7869811de4078f70622f4</Guid>
</region>
<region>
<Name>Миронівка</Name>
<Latitude>49.64413</Latitude>
<Longitude>30.96119</Longitude>
<ParentName>Київська область</ParentName>
<DefaultZoom>8</DefaultZoom>
<CanDrillDown>0</CanDrillDown>
<Level>2</Level>
<Guid>b509001d92f7869811de4078f706230c</Guid>
</region>
<region>
<Name>Камінь-Каширський</Name>
<Latitude>51.63162</Latitude>
<Longitude>24.95819</Longitude>
<ParentName>Волинська область</ParentName>
<DefaultZoom>8</DefaultZoom>
<CanDrillDown>0</CanDrillDown>
<Level>2</Level>
<Guid>b509001d92f7869811de4078f7062368</Guid>
</region>
<region>
<Name>Ратне</Name>
<Latitude>51.67145</Latitude>
<Longitude>24.52458</Longitude>
<ParentName>Волинська область</ParentName>
<DefaultZoom>8</DefaultZoom>
<CanDrillDown>0</CanDrillDown>
<Level>2</Level>
<Guid>b509001d92f7869811de4078f7062364</Guid>
</region>
<region>
<Name>Стара Вижівка</Name>
<Latitude>51.44005</Latitude>
<Longitude>24.43737</Longitude>
<ParentName>Волинська область</ParentName>
<DefaultZoom>8</DefaultZoom>
<CanDrillDown>0</CanDrillDown>
<Level>2</Level>
<Guid>b509001d92f7869811de4078f7062366</Guid>
</region>
<region>
<Name>Бахмач</Name>
<Latitude>51.18015</Latitude>
<Longitude>32.81444</Longitude>
<ParentName>Чернігівська область</ParentName>
<DefaultZoom>8</DefaultZoom>
<CanDrillDown>0</CanDrillDown>
<Level>2</Level>
<Guid>b509001d92f7869811de40790db17b16</Guid>
</region>
<region>
<Name>Буринь</Name>
<Latitude>51.19594</Latitude>
<Longitude>33.82725</Longitude>
<ParentName>Сумська область</ParentName>
<DefaultZoom>8</DefaultZoom>
<CanDrillDown>0</CanDrillDown>
<Level>2</Level>
<Guid>b509001d92f7869811de407900065640</Guid>
</region>
<region>
<Name>Путивль</Name>
<Latitude>51.3336198</Latitude>
<Longitude>33.8543705</Longitude>
<ParentName>Сумська область</ParentName>
<DefaultZoom>8</DefaultZoom>
<CanDrillDown>0</CanDrillDown>
<Level>2</Level>
<Guid>90d9001a9256762611dd391cdb5c8969</Guid>
</region>
<region>
<Name>Володарськ-Волинський</Name>
<Latitude>50.59547</Latitude>
<Longitude>28.4436</Longitude>
<ParentName>Житомирська область</ParentName>
<DefaultZoom>8</DefaultZoom>
<CanDrillDown>0</CanDrillDown>
<Level>2</Level>
<Guid>b509001d92f7869811de3f5d69da41d5</Guid>
</region>
<region>
<Name>Лугини</Name>
<Latitude>51.07853</Latitude>
<Longitude>28.3976</Longitude>
<ParentName>Житомирська область</ParentName>
<DefaultZoom>8</DefaultZoom>
<CanDrillDown>0</CanDrillDown>
<Level>2</Level>
<Guid>b509001d92f7869811de3f5d69da41de</Guid>
</region>
<region>
<Name>Малин</Name>
<Latitude>50.7705502</Latitude>
<Longitude>29.2549707</Longitude>
<ParentName>Житомирська область</ParentName>
<DefaultZoom>8</DefaultZoom>
<CanDrillDown>0</CanDrillDown>
<Level>2</Level>
<Guid>b509001d92f7869811de3f5d69da41f3</Guid>
</region>
<region>
<Name>Народичі</Name>
<Latitude>51.2037677</Latitude>
<Longitude>29.0913215</Longitude>
<ParentName>Житомирська область</ParentName>
<DefaultZoom>8</DefaultZoom>
<CanDrillDown>0</CanDrillDown>
<Level>2</Level>
<Guid>b509001d92f7869811de3f5d69da41e4</Guid>
</region>
<region>
<Name>Овруч</Name>
<Latitude>51.3414104</Latitude>
<Longitude>28.8102239</Longitude>
<ParentName>Житомирська область</ParentName>
<DefaultZoom>8</DefaultZoom>
<CanDrillDown>0</CanDrillDown>
<Level>2</Level>
<Guid>b509001d92f7869811de3f5d69da41e1</Guid>
</region>
<region>
<Name>Черняхів</Name>
<Latitude>50.45299</Latitude>
<Longitude>28.66573</Longitude>
<ParentName>Житомирська область</ParentName>
<DefaultZoom>8</DefaultZoom>
<CanDrillDown>0</CanDrillDown>
<Level>2</Level>
<Guid>b509001d92f7869811de3f5d69da41e7</Guid>
</region>
<region>
<Name>Дзержинськ</Name>
<Latitude>48.39091</Latitude>
<Longitude>37.8503</Longitude>
<ParentName>Донецька область</ParentName>
<DefaultZoom>8</DefaultZoom>
<CanDrillDown>0</CanDrillDown>
<Level>2</Level>
<Guid>8140969cd9edcd6811e08a8910975675</Guid>
</region>
<region>
<Name>Ананьїв</Name>
<Latitude>47.7178669</Latitude>
<Longitude>29.9601889</Longitude>
<ParentName>Одеська область</ParentName>
<DefaultZoom>8</DefaultZoom>
<CanDrillDown>0</CanDrillDown>
<Level>2</Level>
<Guid>b509001d92f7869811de407906f8796e</Guid>
</region>
<region>
<Name>Балта</Name>
<Latitude>47.93644</Latitude>
<Longitude>29.62017</Longitude>
<ParentName>Одеська область</ParentName>
<DefaultZoom>8</DefaultZoom>
<CanDrillDown>0</CanDrillDown>
<Level>2</Level>
<Guid>b509001d92f7869811de407906f87968</Guid>
</region>
<region>
<Name>Кодима</Name>
<Latitude>48.10673</Latitude>
<Longitude>29.12647</Longitude>
<ParentName>Одеська область</ParentName>
<DefaultZoom>8</DefaultZoom>
<CanDrillDown>0</CanDrillDown>
<Level>2</Level>
<Guid>b509001d92f7869811de407906f87966</Guid>
</region>
<region>
<Name>Красні Окни</Name>
<Latitude>47.5399</Latitude>
<Longitude>29.45881</Longitude>
<ParentName>Одеська область</ParentName>
<DefaultZoom>8</DefaultZoom>
<CanDrillDown>0</CanDrillDown>
<Level>2</Level>
<Guid>b509001d92f7869811de407906f8796c</Guid>
</region>
<region>
<Name>Любашівка</Name>
<Latitude>47.8315678</Latitude>
<Longitude>30.2562335</Longitude>
<ParentName>Одеська область</ParentName>
<DefaultZoom>8</DefaultZoom>
<CanDrillDown>0</CanDrillDown>
<Level>2</Level>
<Guid>b509001d92f7869811de407906f87962</Guid>
</region>
<region>
<Name>Саврань</Name>
<Latitude>48.12492</Latitude>
<Longitude>30.07713</Longitude>
<ParentName>Одеська область</ParentName>
<DefaultZoom>8</DefaultZoom>
<CanDrillDown>0</CanDrillDown>
<Level>2</Level>
<Guid>b509001d92f7869811de407906f87964</Guid>
</region>
<region>
<Name>Гірник</Name>
<Latitude>48.05797</Latitude>
<Longitude>37.37137</Longitude>
<ParentName>Донецька область</ParentName>
<DefaultZoom>8</DefaultZoom>
<CanDrillDown>0</CanDrillDown>
<Level>2</Level>
<Guid>8140969cd9edcd6811e08a891097567f</Guid>
</region>
<region>
<Name>Димитров</Name>
<Latitude>48.30791</Latitude>
<Longitude>37.2591</Longitude>
<ParentName>Донецька область</ParentName>
<DefaultZoom>8</DefaultZoom>
<CanDrillDown>0</CanDrillDown>
<Level>2</Level>
<Guid>8140969cd9edcd6811e08a8910975677</Guid>
</region>
<region>
<Name>Добропілля</Name>
<Latitude>48.48575</Latitude>
<Longitude>37.08401</Longitude>
<ParentName>Донецька область</ParentName>
<DefaultZoom>8</DefaultZoom>
<CanDrillDown>0</CanDrillDown>
<Level>2</Level>
<Guid>9570001d92f7869711de0416948a49c9</Guid>
</region>
<region>
<Name>Межова</Name>
<Latitude>48.254068</Latitude>
<Longitude>36.727327</Longitude>
<ParentName>Дніпропетровська область</ParentName>
<DefaultZoom>8</DefaultZoom>
<CanDrillDown>0</CanDrillDown>
<Level>2</Level>
<Guid>b509001d92f7869811de3f5d69da4193</Guid>
</region>
<region>
<Name>Новогродівка</Name>
<Latitude>48.1998073</Latitude>
<Longitude>37.339504</Longitude>
<ParentName>Донецька область</ParentName>
<DefaultZoom>8</DefaultZoom>
<CanDrillDown>0</CanDrillDown>
<Level>2</Level>
<Guid>8140969cd9edcd6811e08a891097567d</Guid>
</region>
<region>
<Name>Олександрівка(Донецьк)</Name>
<Latitude>47.920105</Latitude>
<Longitude>37.573939</Longitude>
<ParentName>Донецька область</ParentName>
<DefaultZoom>8</DefaultZoom>
<CanDrillDown>0</CanDrillDown>
<Level>2</Level>
<Guid>ac940024e83b596e11e02535eef079f8</Guid>
</region>
<region>
<Name>Родинське</Name>
<Latitude>48.3543098</Latitude>
<Longitude>37.203344</Longitude>
<ParentName>Донецька область</ParentName>
<DefaultZoom>8</DefaultZoom>
<CanDrillDown>0</CanDrillDown>
<Level>2</Level>
<Guid>8140969cd9edcd6811e08a8910975679</Guid>
</region>
<region>
<Name>Селидове</Name>
<Latitude>48.15015</Latitude>
<Longitude>37.3018921</Longitude>
<ParentName>Донецька область</ParentName>
<DefaultZoom>8</DefaultZoom>
<CanDrillDown>0</CanDrillDown>
<Level>2</Level>
<Guid>8140969cd9edcd6811e08a891097567b</Guid>
</region>
<region>
<Name>Українськ</Name>
<Latitude>48.09471</Latitude>
<Longitude>37.35866</Longitude>
<ParentName>Донецька область</ParentName>
<DefaultZoom>8</DefaultZoom>
<CanDrillDown>0</CanDrillDown>
<Level>2</Level>
<Guid>8140969cd9edcd6811e08a8910975681</Guid>
</region>
<region>
<Name>Армянськ</Name>
<Latitude>46.1126098</Latitude>
<Longitude>33.6917017</Longitude>
<ParentName>АР Крим</ParentName>
<DefaultZoom>8</DefaultZoom>
<CanDrillDown>0</CanDrillDown>
<Level>2</Level>
<Guid>a244932e1b207d8111e0c89c321d3b6b</Guid>
</region>
<region>
<Name>Первомайське(АРК)</Name>
<Latitude>45.7124068</Latitude>
<Longitude>33.864073</Longitude>
<ParentName>АР Крим</ParentName>
<DefaultZoom>8</DefaultZoom>
<CanDrillDown>0</CanDrillDown>
<Level>2</Level>
<Guid>b509001d92f7869811de40790006562a</Guid>
</region>
<region>
<Name>Роздольне</Name>
<Latitude>45.7683327</Latitude>
<Longitude>33.489566</Longitude>
<ParentName>АР Крим</ParentName>
<DefaultZoom>8</DefaultZoom>
<CanDrillDown>0</CanDrillDown>
<Level>2</Level>
<Guid>b509001d92f7869811de407900065628</Guid>
</region>
<region>
<Name>Глобине</Name>
<Latitude>49.37839</Latitude>
<Longitude>33.27656</Longitude>
<ParentName>Полтавська область</ParentName>
<DefaultZoom>8</DefaultZoom>
<CanDrillDown>0</CanDrillDown>
<Level>2</Level>
<Guid>913b001d92f7869811de3b517833e61c</Guid>
</region>
<region>
<Name>Козельщина</Name>
<Latitude>49.21256999999999</Latitude>
<Longitude>33.83926</Longitude>
<ParentName>Полтавська область</ParentName>
<DefaultZoom>8</DefaultZoom>
<CanDrillDown>0</CanDrillDown>
<Level>2</Level>
<Guid>913b001d92f7869811de3b517833e620</Guid>
</region>
<region>
<Name>Онуфріївка</Name>
<Latitude>48.90324</Latitude>
<Longitude>33.44822</Longitude>
<ParentName>Кіровоградська область</ParentName>
<DefaultZoom>8</DefaultZoom>
<CanDrillDown>0</CanDrillDown>
<Level>2</Level>
<Guid>b509001d92f7869811de4078f7062310</Guid>
</region>
<region>
<Name>Семенівка(Кременчук)</Name>
<Latitude>49.59392</Latitude>
<Longitude>33.1775856</Longitude>
<ParentName>Полтавська область</ParentName>
<DefaultZoom>8</DefaultZoom>
<CanDrillDown>0</CanDrillDown>
<Level>2</Level>
<Guid>913b001d92f7869811de3b517833e61e</Guid>
</region>
<region>
<Name>Інгулець</Name>
<Latitude>47.98519</Latitude>
<Longitude>33.26523</Longitude>
<ParentName>Дніпропетровська область</ParentName>
<DefaultZoom>8</DefaultZoom>
<CanDrillDown>0</CanDrillDown>
<Level>2</Level>
<Guid>90d9001a9256762611dd391cdb5c890e</Guid>
</region>
<region>
<Name>Апостолове</Name>
<Latitude>47.6631973</Latitude>
<Longitude>33.7012848</Longitude>
<ParentName>Дніпропетровська область</ParentName>
<DefaultZoom>8</DefaultZoom>
<CanDrillDown>0</CanDrillDown>
<Level>2</Level>
<Guid>b509001d92f7869811de4078f7062316</Guid>
</region>
<region>
<Name>Долинська</Name>
<Latitude>48.11634</Latitude>
<Longitude>32.76363</Longitude>
<ParentName>Кіровоградська область</ParentName>
<DefaultZoom>8</DefaultZoom>
<CanDrillDown>0</CanDrillDown>
<Level>2</Level>
<Guid>b509001d92f7869811de4078f7062332</Guid>
</region>
<region>
<Name>Софіївка</Name>
<Latitude>48.0830163</Latitude>
<Longitude>33.9035048</Longitude>
<ParentName>Дніпропетровська область</ParentName>
<DefaultZoom>8</DefaultZoom>
<CanDrillDown>0</CanDrillDown>
<Level>2</Level>
<Guid>b509001d92f7869811de4078f7062312</Guid>
</region>
<region>
<Name>Широке</Name>
<Latitude>47.69714</Latitude>
<Longitude>33.27141</Longitude>
<ParentName>Дніпропетровська область</ParentName>
<DefaultZoom>8</DefaultZoom>
<CanDrillDown>0</CanDrillDown>
<Level>2</Level>
<Guid>b509001d92f7869811de4078f7062314</Guid>
</region>
<region>
<Name>Близнюки</Name>
<Latitude>48.85311</Latitude>
<Longitude>36.55186</Longitude>
<ParentName>Харківська область</ParentName>
<DefaultZoom>8</DefaultZoom>
<CanDrillDown>0</CanDrillDown>
<Level>2</Level>
<Guid>b509001d92f7869811de3f5d69da418d</Guid>
</region>
<region>
<Name>Гребінка</Name>
<Latitude>50.1186813</Latitude>
<Longitude>32.4331795</Longitude>
<ParentName>Полтавська область</ParentName>
<DefaultZoom>8</DefaultZoom>
<CanDrillDown>0</CanDrillDown>
<Level>2</Level>
<Guid>913b001d92f7869811de3b29e5dd3d23</Guid>
</region>
<region>
<Name>Лохвиця</Name>
<Latitude>50.3572576</Latitude>
<Longitude>33.2710881</Longitude>
<ParentName>Полтавська область</ParentName>
<DefaultZoom>8</DefaultZoom>
<CanDrillDown>0</CanDrillDown>
<Level>2</Level>
<Guid>913b001d92f7869811de3b517833e612</Guid>
</region>
<region>
<Name>Оржиця</Name>
<Latitude>49.7883302</Latitude>
<Longitude>32.6938687</Longitude>
<ParentName>Полтавська область</ParentName>
<DefaultZoom>8</DefaultZoom>
<CanDrillDown>0</CanDrillDown>
<Level>2</Level>
<Guid>913b001d92f7869811de3b29e5dd3d25</Guid>
</region>
<region>
<Name>Пирятин</Name>
<Latitude>50.24425</Latitude>
<Longitude>32.50957</Longitude>
<ParentName>Полтавська область</ParentName>
<DefaultZoom>8</DefaultZoom>
<CanDrillDown>0</CanDrillDown>
<Level>2</Level>
<Guid>b6f5001d92f7869711de08f94427697a</Guid>
</region>
<region>
<Name>Хорол</Name>
<Latitude>49.7792229</Latitude>
<Longitude>33.2401174</Longitude>
<ParentName>Полтавська область</ParentName>
<DefaultZoom>8</DefaultZoom>
<CanDrillDown>0</CanDrillDown>
<Level>2</Level>
<Guid>90d9001a9256762611dd391ce221d63b</Guid>
</region>
<region>
<Name>Чорнухи</Name>
<Latitude>50.26794</Latitude>
<Longitude>32.93049</Longitude>
<ParentName>Полтавська область</ParentName>
<DefaultZoom>8</DefaultZoom>
<CanDrillDown>0</CanDrillDown>
<Level>2</Level>
<Guid>913b001d92f7869811de3b29e5dd3d21</Guid>
</region>
<region>
<Name>Георгіївка</Name>
<Latitude>48.43014</Latitude>
<Longitude>39.26926</Longitude>
<ParentName>Луганська область</ParentName>
<DefaultZoom>8</DefaultZoom>
<CanDrillDown>0</CanDrillDown>
<Level>2</Level>
<Guid>90d9001a9256762611dd391cdb5c88e4</Guid>
</region>
<region>
<Name>Краснодон</Name>
<Latitude>48.30757</Latitude>
<Longitude>39.72004</Longitude>
<ParentName>Луганська область</ParentName>
<DefaultZoom>8</DefaultZoom>
<CanDrillDown>0</CanDrillDown>
<Level>2</Level>
<Guid>90d9001a9256762611dd391cdb5c892c</Guid>
</region>
<region>
<Name>Лутугине</Name>
<Latitude>48.40233</Latitude>
<Longitude>39.20849</Longitude>
<ParentName>Луганська область</ParentName>
<DefaultZoom>8</DefaultZoom>
<CanDrillDown>0</CanDrillDown>
<Level>2</Level>
<Guid>b509001d92f7869811de4078f706233a</Guid>
</region>
<region>
<Name>Слов`яносербськ</Name>
<Latitude>48.6977728</Latitude>
<Longitude>38.9811066</Longitude>
<ParentName>Луганська область</ParentName>
<DefaultZoom>8</DefaultZoom>
<CanDrillDown>0</CanDrillDown>
<Level>2</Level>
<Guid>b509001d92f7869811de4078f7062336</Guid>
</region>
<region>
<Name>Станиця Луганська</Name>
<Latitude>48.66428</Latitude>
<Longitude>39.50718</Longitude>
<ParentName>Луганська область</ParentName>
<DefaultZoom>8</DefaultZoom>
<CanDrillDown>0</CanDrillDown>
<Level>2</Level>
<Guid>b509001d92f7869811de4078f7062338</Guid>
</region>
<region>
<Name>Суходільськ</Name>
<Latitude>48.35323</Latitude>
<Longitude>39.72484</Longitude>
<ParentName>Луганська область</ParentName>
<DefaultZoom>8</DefaultZoom>
<CanDrillDown>0</CanDrillDown>
<Level>2</Level>
<Guid>90d9001a9256762611dd391ce221d61f</Guid>
</region>
<region>
<Name>Щастя</Name>
<Latitude>48.73638</Latitude>
<Longitude>39.24248</Longitude>
<ParentName>Луганська область</ParentName>
<DefaultZoom>8</DefaultZoom>
<CanDrillDown>0</CanDrillDown>
<Level>2</Level>
<Guid>90d9001a9256762611dd391ce221d64d</Guid>
</region>
<region>
<Name>Іваничі</Name>
<Latitude>50.6390249</Latitude>
<Longitude>24.3647484</Longitude>
<ParentName>Волинська область</ParentName>
<DefaultZoom>8</DefaultZoom>
<CanDrillDown>0</CanDrillDown>
<Level>2</Level>
<Guid>b509001d92f7869811de4078f706235a</Guid>
</region>
<region>
<Name>Горохів</Name>
<Latitude>50.50312</Latitude>
<Longitude>24.77177</Longitude>
<ParentName>Волинська область</ParentName>
<DefaultZoom>8</DefaultZoom>
<CanDrillDown>0</CanDrillDown>
<Level>2</Level>
<Guid>b509001d92f7869811de4078f706235c</Guid>
</region>
<region>
<Name>Ківерці</Name>
<Latitude>50.82893</Latitude>
<Longitude>25.46185</Longitude>
<ParentName>Волинська область</ParentName>
<DefaultZoom>8</DefaultZoom>
<CanDrillDown>0</CanDrillDown>
<Level>2</Level>
<Guid>b509001d92f7869811de4078f7062354</Guid>
</region>
<region>
<Name>Локачі</Name>
<Latitude>50.7390714</Latitude>
<Longitude>24.6479127</Longitude>
<ParentName>Волинська область</ParentName>
<DefaultZoom>8</DefaultZoom>
<CanDrillDown>0</CanDrillDown>
<Level>2</Level>
<Guid>b509001d92f7869811de4078f7062356</Guid>
</region>
<region>
<Name>Любешів</Name>
<Latitude>51.75453</Latitude>
<Longitude>25.49172</Longitude>
<ParentName>Волинська область</ParentName>
<DefaultZoom>8</DefaultZoom>
<CanDrillDown>0</CanDrillDown>
<Level>2</Level>
<Guid>b509001d92f7869811de4078f706236a</Guid>
</region>
<region>
<Name>Любомль</Name>
<Latitude>51.2169499</Latitude>
<Longitude>24.0386003</Longitude>
<ParentName>Волинська область</ParentName>
<DefaultZoom>8</DefaultZoom>
<CanDrillDown>0</CanDrillDown>
<Level>2</Level>
<Guid>b509001d92f7869811de4078f7062360</Guid>
</region>
<region>
<Name>Маневичі</Name>
<Latitude>51.29104</Latitude>
<Longitude>25.51952</Longitude>
<ParentName>Волинська область</ParentName>
<DefaultZoom>8</DefaultZoom>
<CanDrillDown>0</CanDrillDown>
<Level>2</Level>
<Guid>b509001d92f7869811de4078f706236c</Guid>
</region>
<region>
<Name>Рожище</Name>
<Latitude>50.91648</Latitude>
<Longitude>25.27165</Longitude>
